$GPGSA,A,3,11,13,15,17,28,30,,,,,,,2.5,1.4,2.0*3B
$GPGSV,4,1,16,13,55,293,34,30,54,080,30,28,66,002,30,17,48,174,29*77
$GPGSV,4,2,16,11,18,068,29,15,23,312,26,01,10,084,25,07,25,104,23*7A
$GPGSV,4,3,16,04,05,059,,05,05,240,,20,02,282,,09,,,*43
$GPGSV,4,4,16,10,,,,19,,,,32,,,,31,,,*74
$GPGGA,072134.0,3543.690097,N,05123.283662,E,1,06,1.4,1333.3,M,-14.0,M,,*4B
$GPVTG,260.4,T,256.7,M,3.6,N,6.7,K,A*21
$GPRMC,072134.0,A,3543.690097,N,05123.283662,E,3.6,260.4,220615,3.7,E,A*0B
$GPGSA,A,3,11,13,15,17,28,30,,,,,,,2.5,1.4,2.0*3B
$GPGSV,4,1,16,13,55,293,35,15,23,312,33,17,48,174,29,30,54,080,27*7E
$GPGSV,4,2,16,28,66,002,27,11,18,068,25,01,10,084,24,07,25,104,22*7A
$GPGSV,4,3,16,04,05,059,20,05,05,240,,20,02,282,,09,,,*41
$GPGSV,4,4,16,10,,,,19,,,,32,,,,31,,,*74
$GPGGA,072135.0,3543.692184,N,05123.283722,E,1,06,1.4,1334.0,M,-14.0,M,,*4A
$GPVTG,320.6,T,316.9,M,4.1,N,7.6,K,A*2D
$GPRMC,072135.0,A,3543.692184,N,05123.283722,E,4.1,320.6,220615,3.7,E,A*09
$GPGSA,A,3,11,13,15,17,28,30,,,,,,,2.5,1.4,2.0*3B
$GPGSV,4,1,16,13,55,293,39,17,48,174,33,15,23,312,32,28,66,002,32*7E
$GPGSV,4,2,16,30,54,080,31,01,10,084,24,11,18,068,23,07,25,104,22*79
$GPGSV,4,3,16,04,05,059,20,05,05,240,,20,02,282,,09,,,*41
$GPGSV,4,4,16,10,,,,19,,,,32,,,,31,,,*74
$GPGGA,072136.0,3543.694246,N,05123.282413,E,1,06,1.4,1332.3,M,-14.0,M,,*47
$GPVTG,331.6,T,328.0,M,6.6,N,12.3,K,A*1D
$GPRMC,072136.0,A,3543.694246,N,05123.282413,E,6.6,331.6,220615,3.7,E,A*04
$GPGSA,A,3,11,13,15,17,28,30,,,,,,,2.5,1.4,2.0*3B
$GPGSV,4,1,16,07,25,104,34,30,54,080,33,11,18,068,33,28,66,002,30*7F
$GPGSV,4,2,16,15,23,312,29,17,48,174,29,05,05,240,26,01,10,084,23*7A
$GPGSV,4,3,16,13,55,293,23,04,05,059,,20,02,282,,09,,,*4E
$GPGSV,4,4,16,10,,,,19,,,,32,,,,31,,,*74
$GPGGA,072137.0,3543.696953,N,05123.280552,E,1,06,1.4,1331.2,M,-14.0,M,,*4F
$GPVTG,340.9,T,337.3,M,10.5,N,19.5,K,A*20
$GPRMC,072137.0,A,3543.696953,N,05123.280552,E,10.5,340.9,220615,3.7,E,A*33
$GPGSA,A,3,11,13,15,17,28,30,,,,,,,2.5,1.4,2.0*3B
$GPGSV,4,1,16,07,25,104,34,28,66,002,32,30,54,080,31,13,55,293,31*70
$GPGSV,4,2,16,11,18,068,30,15,23,312,30,05,05,240,25,17,48,174,25*74
$GPGSV,4,3,16,01,10,084,25,04,05,059,,20,02,282,,09,,,*4E
$GPGSV,4,4,16,10,,,,19,,,,32,,,,31,,,*74
$GPGGA,072138.0,3543.699730,N,05123.279725,E,1,06,1.4,1331.1,M,-14.0,M,,*43
$GPVTG,341.6,T,337.9,M,10.4,N,19.3,K,A*23
$GPRMC,072138.0,A,3543.699730,N,05123.279725,E,10.4,341.6,220615,3.7,E,A*33
$GPGSA,A,3,11,13,15,17,28,30,,,,,,,2.5,1.4,2.0*3B
$GPGSV,4,1,16,13,55,293,34,30,54,080,32,28,66,002,30,15,23,312,30*70
$GPGSV,4,2,16,11,18,068,29,07,25,104,28,17,48,174,25,01,10,084,22*78
$GPGSV,4,3,16,05,05,240,18,04,05,059,,20,02,282,,09,,,*4A
$GPGSV,4,4,16,10,,,,19,,,,32,,,,31,,,*74
$GPGGA,072139.0,3543.702784,N,05123.278373,E,1,06,1.4,1330.8,M,-14.0,M,,*40
$GPVTG,343.3,T,339.6,M,11.1,N,20.6,K,A*2E
$GPRMC,072139.0,A,3543.702784,N,05123.278373,E,11.1,343.3,220615,3.7,E,A*3B
$GPGSA,A,3,11,13,15,17,28,30,,,,,,,2.5,1.4,2.0*3B
$GPGSV,4,1,16,13,55,293,34,30,54,080,33,28,66,002,30,15,23,312,28*78
$GPGSV,4,2,16,11,18,068,28,17,48,174,23,07,25,104,23,01,10,084,19*7C
$GPGSV,4,3,16,05,05,240,18,04,05,059,,20,02,282,,09,,,*4A
$GPGSV,4,4,16,10,,,,19,,,,32,,,,31,,,*74
$GPGGA,072140.0,3543.707139,N,05123.277613,E,1,06,1.4,1331.2,M,-14.0,M,,*4C
$GPVTG,350.2,T,346.5,M,14.1,N,26.0,K,A*23
$GPRMC,072140.0,A,3543.707139,N,05123.277613,E,14.1,350.2,220615,3.7,E,A*3A
$GPGSA,A,3,11,13,15,17,28,30,,,,,,,2.5,1.4,2.0*3B
$GPGSV,4,1,16,13,55,291,33,30,54,082,33,28,65,005,29,07,25,104,27*7C
$GPGSV,4,2,16,15,23,310,26,17,48,174,25,11,18,067,24,01,10,082,19*78
$GPGSV,4,3,16,05,05,240,18,04,06,059,,20,02,281,,09,,,*4A
$GPGSV,4,4,16,10,,,,19,,,,32,,,,31,,,*74
$GPGGA,072141.0,3543.710798,N,05123.276437,E,1,06,1.4,1331.9,M,-14.0,M,,*48
$GPVTG,350.0,T,346.3,M,13.9,N,25.8,K,A*23
$GPRMC,072141.0,A,3543.710798,N,05123.276437,E,13.9,350.0,220615,3.7,E,A*38
$GPGSA,A,3,11,13,15,17,28,30,,,,,,,2.5,1.4,2.0*3B
$GPGSV,4,1,16,13,55,291,33,30,54,082,33,28,65,005,29,07,25,104,27*7C
$GPGSV,4,2,16,15,23,310,26,17,48,174,25,11,18,067,24,01,10,082,19*78
$GPGSV,4,3,16,05,05,240,18,04,06,059,,20,02,281,,09,,,*4A
$GPGSV,4,4,16,10,,,,19,,,,32,,,,31,,,*74
$GPGGA,072141.9,3543.714610,N,05123.275615,E,1,06,1.4,1332.1,M,-14.0,M,,*4E
$GPVTG,350.0,T,346.3,M,13.9,N,25.8,K,A*23
$GPRMC,072141.9,A,3543.714610,N,05123.275615,E,13.9,350.0,220615,3.7,E,A*35
$GPGSA,A,3,11,13,15,17,28,30,,,,,,,2.5,1.4,2.0*3B
$GPGSV,4,1,16,13,55,293,32,28,65,002,31,30,54,080,30,15,23,312,28*7F
$GPGSV,4,2,16,11,18,068,24,07,25,104,24,17,48,174,23,01,10,082,19*71
$GPGSV,4,3,16,05,05,240,18,04,06,059,,20,02,281,,09,,,*4A
$GPGSV,4,4,16,10,,,,19,,,,32,,,,31,,,*74
$GPGGA,072143.0,3543.718309,N,05123.274242,E,1,06,1.4,1331.1,M,-14.0,M,,*40
$GPVTG,349.0,T,345.3,M,13.9,N,25.8,K,A*28
$GPRMC,072143.0,A,3543.718309,N,05123.274242,E,13.9,349.0,220615,3.7,E,A*30
$GPGSA,A,3,11,13,15,17,28,30,,,,,,,2.5,1.4,2.0*3B
$GPGSV,4,1,16,28,65,002,33,13,55,293,32,30,54,080,32,15,23,312,30*76
$GPGSV,4,2,16,07,25,104,28,11,18,068,24,17,48,174,23,01,10,082,22*75
$GPGSV,4,3,16,04,06,059,,05,05,240,,20,02,281,,09,,,*43
$GPGSV,4,4,16,10,,,,19,,,,32,,,,31,,,*74
$GPGGA,072143.9,3543.722373,N,05123.273187,E,1,06,4.1,1331.1,M,-14.0,M,,*40
$GPVTG,348.4,T,344.7,M,14.9,N,27.6,K,A*23
$GPRMC,072143.9,A,3543.722373,N,05123.273187,E,14.9,348.4,220615,3.7,E,A*32
$GPGSA,A,3,11,13,15,17,28,30,,,,,,,4.9,4.1,2.7*36
$GPGSV,4,1,16,30,54,080,30,15,23,312,30,28,65,002,28,13,55,293,28*75
$GPGSV,4,2,16,05,05,240,27,07,25,104,24,17,48,174,24,11,18,068,22*71
$GPGSV,4,3,16,01,10,082,20,04,06,059,,20,02,281,,09,,,*4D
$GPGSV,4,4,16,10,,,,19,,,,32,,,,31,,,*74
$GPGGA,072145.0,3543.726027,N,05123.273046,E,1,06,1.4,1331.7,M,-14.0,M,,*43
$GPVTG,350.2,T,346.5,M,14.4,N,26.7,K,A*21
$GPRMC,072145.0,A,3543.726027,N,05123.273046,E,14.4,350.2,220615,3.7,E,A*35
$GPGSA,A,3,11,13,15,17,28,30,,,,,,,2.5,1.4,2.0*3B
$GPGSV,4,1,16,30,54,080,33,15,23,312,31,28,65,002,31,13,55,293,30*76
$GPGSV,4,2,16,07,25,104,22,17,48,174,22,11,18,068,21,05,05,240,18*7E
$GPGSV,4,3,16,01,10,082,18,04,06,059,,20,02,281,,09,,,*46
$GPGSV,4,4,16,10,,,,19,,,,32,,,,31,,,*74
$GPGGA,072146.0,3543.730473,N,05123.271550,E,1,06,1.4,1332.1,M,-14.0,M,,*47
$GPVTG,348.8,T,345.1,M,15.6,N,28.9,K,A*26
$GPRMC,072146.0,A,3543.730473,N,05123.271550,E,15.6,348.8,220615,3.7,E,A*34
$GPGSA,A,3,11,13,15,17,28,30,,,,,,,2.5,1.4,2.0*3B
$GPGSV,4,1,16,30,54,080,32,28,65,002,32,13,55,293,30,15,23,312,30*75
$GPGSV,4,2,16,07,25,104,28,17,48,174,22,11,18,068,21,05,05,240,18*74
$GPGSV,4,3,16,01,10,082,18,04,06,059,,20,02,281,,09,,,*46
$GPGSV,4,4,16,10,,,,19,,,,32,,,,31,,,*74
$GPGGA,072146.9,3543.734154,N,05123.269496,E,1,06,1.4,1332.3,M,-14.0,M,,*4A
$GPVTG,346.1,T,342.4,M,16.3,N,30.3,K,A*26
$GPRMC,072146.9,A,3543.734154,N,05123.269496,E,16.3,346.1,220615,3.7,E,A*3A
$GPGSA,A,3,11,13,15,17,28,30,,,,,,,2.5,1.4,2.0*3B
$GPGSV,4,1,16,13,55,293,34,30,54,080,30,28,65,002,29,11,18,068,29*73
$GPGSV,4,2,16,07,25,104,28,15,23,312,26,01,10,082,21,17,48,174,20*75
$GPGSV,4,3,16,05,05,240,18,04,06,059,,20,02,281,,09,,,*4A
$GPGSV,4,4,16,10,,,,19,,,,32,,,,31,,,*74
$GPGGA,072148.0,3543.738733,N,05123.266968,E,1,06,1.4,1331.7,M,-14.0,M,,*42
$GPVTG,344.7,T,341.0,M,17.3,N,32.0,K,A*25
$GPRMC,072148.0,A,3543.738733,N,05123.266968,E,17.3,344.7,220615,3.7,E,A*30
$GPGSA,A,3,11,13,15,17,28,30,,,,,,,2.5,1.4,2.0*3B
$GPGSV,4,1,16,13,55,293,36,30,54,080,30,28,65,002,29,15,23,312,27*7D
$GPGSV,4,2,16,11,18,068,23,17,48,174,20,01,10,082,20,07,25,104,19*71
$GPGSV,4,3,16,05,05,240,16,04,06,059,,20,02,281,,09,,,*44
$GPGSV,4,4,16,10,,,,19,,,,32,,,,31,,,*74
$GPGGA,072149.0,3543.742818,N,05123.265347,E,1,06,1.4,1332.1,M,-14.0,M,,*49
$GPVTG,345.2,T,341.5,M,17.1,N,31.7,K,A*22
$GPRMC,072149.0,A,3543.742818,N,05123.265347,E,17.1,345.2,220615,3.7,E,A*38
$GPGSA,A,3,11,13,15,17,28,30,,,,,,,2.5,1.4,2.0*3B
$GPGSV,4,1,16,13,55,293,34,30,54,080,29,28,65,002,29,15,23,312,27*77
$GPGSV,4,2,16,07,25,104,26,11,18,068,23,17,48,174,20,01,10,082,20*7D
$GPGSV,4,3,16,05,05,240,16,04,06,059,,20,02,281,,09,,,*44
$GPGSV,4,4,16,10,,,,19,,,,32,,,,31,,,*74
$GPGGA,072149.9,3543.747866,N,05123.262868,E,1,06,1.4,1331.5,M,-14.0,M,,*4A
$GPVTG,343.9,T,340.2,M,17.3,N,32.0,K,A*2F
$GPRMC,072149.9,A,3543.747866,N,05123.262868,E,17.3,343.9,220615,3.7,E,A*33
$GPGSA,A,3,11,13,15,17,28,30,,,,,,,2.5,1.4,2.0*3B
$GPGSV,4,1,16,13,55,293,35,30,54,080,32,28,65,002,27,17,48,174,25*7D
$GPGSV,4,2,16,11,18,068,24,15,23,312,24,07,25,104,22,01,10,082,21*76
$GPGSV,4,3,16,05,05,240,16,04,06,059,,20,02,281,,09,,,*44
$GPGSV,4,4,16,10,,,,19,,,,32,,,,31,,,*74
$GPGGA,072151.0,3543.752611,N,05123.262632,E,1,06,1.4,1331.4,M,-14.0,M,,*40
$GPVTG,346.8,T,343.1,M,16.2,N,30.0,K,A*29
$GPRMC,072151.0,A,3543.752611,N,05123.262632,E,16.2,346.8,220615,3.7,E,A*3C
$GPGSA,A,3,11,13,15,17,28,30,,,,,,,2.5,1.4,2.0*3B
$GPGSV,4,1,16,13,55,293,36,28,65,002,30,30,54,080,29,15,23,312,23*79
$GPGSV,4,2,16,01,10,082,21,17,48,174,21,07,25,104,21,11,18,068,20*79
$GPGSV,4,3,16,05,05,240,16,04,06,059,,20,02,281,,09,,,*44
$GPGSV,4,4,16,10,,,,19,,,,32,,,,31,,,*74
$GPGGA,072152.0,3543.757467,N,05123.261688,E,1,06,1.4,1331.4,M,-14.0,M,,*47
$GPVTG,347.9,T,344.2,M,17.0,N,31.5,K,A*2A
$GPRMC,072152.0,A,3543.757467,N,05123.261688,E,17.0,347.9,220615,3.7,E,A*38
$GPGSA,A,3,11,13,15,17,28,30,,,,,,,2.5,1.4,2.0*3B
$GPGSV,4,1,16,13,55,293,35,28,65,002,31,30,54,080,30,07,25,104,30*71
$GPGSV,4,2,16,15,23,312,29,11,18,068,23,01,10,082,21,17,48,174,21*72
$GPGSV,4,3,16,04,06,059,,05,05,240,,20,02,281,,09,,,*43
$GPGSV,4,4,16,10,,,,19,,,,32,,,,31,,,*74
$GPGGA,072153.0,3543.761916,N,05123.262525,E,1,06,4.1,1331.8,M,-14.0,M,,*43
$GPVTG,350.6,T,346.9,M,17.0,N,31.6,K,A*29
$GPRMC,072153.0,A,3543.761916,N,05123.262525,E,17.0,350.6,220615,3.7,E,A*39
$GPGSA,A,3,11,13,15,17,28,30,,,,,,,4.9,4.1,2.7*36
$GPGSV,4,1,16,13,55,293,35,28,65,002,31,30,54,080,30,07,25,104,30*71
$GPGSV,4,2,16,15,23,312,29,11,18,068,23,01,10,082,21,17,48,174,21*72
$GPGSV,4,3,16,04,06,059,,05,05,240,,20,02,281,,09,,,*43
$GPGSV,4,4,16,10,,,,19,,,,32,,,,31,,,*74
$GPGGA,072154.0,3543.766591,N,05123.261575,E,1,06,4.1,1331.8,M,-14.0,M,,*46
$GPVTG,350.6,T,346.9,M,17.0,N,31.6,K,A*29
$GPRMC,072154.0,A,3543.766591,N,05123.261575,E,17.0,350.6,220615,3.7,E,A*3C
$GPGSA,A,3,11,13,15,17,28,30,,,,,,,4.9,4.1,2.7*36
$GPGSV,4,1,16,13,55,293,35,07,25,104,29,11,18,068,28,28,65,002,28*75
$GPGSV,4,2,16,15,23,312,27,30,54,080,27,01,10,082,,04,06,059,*73
$GPGSV,4,3,16,05,05,240,,17,48,174,,20,02,281,,09,,,*45
$GPGSV,4,4,16,10,,,,19,,,,32,,,,31,,,*74
$GPGGA,072155.0,3543.772795,N,05123.260079,E,1,06,4.1,1332.2,M,-14.0,M,,*45
$GPVTG,348.8,T,345.1,M,20.7,N,38.2,K,A*2B
$GPRMC,072155.0,A,3543.772795,N,05123.260079,E,20.7,348.8,220615,3.7,E,A*32
$GPGSA,A,3,11,13,15,17,28,30,,,,,,,4.9,4.1,2.7*36
$GPGSV,4,1,16,13,55,293,35,28,65,002,30,15,23,312,28,30,54,080,27*7F
$GPGSV,4,2,16,07,24,104,27,17,48,174,23,11,18,068,22,01,10,082,*7D
$GPGSV,4,3,16,04,06,059,,05,05,240,,20,02,281,,09,,,*43
$GPGSV,4,4,16,10,,,,19,,,,32,,,,31,,,*74
$GPGGA,072156.0,3543.778502,N,05123.257830,E,1,06,1.4,1332.7,M,-14.0,M,,*44
$GPVTG,348.9,T,345.2,M,20.9,N,38.6,K,A*23
$GPRMC,072156.0,A,3543.778502,N,05123.257830,E,20.9,348.9,220615,3.7,E,A*39
$GPGSA,A,3,11,13,15,17,28,30,,,,,,,2.5,1.4,2.0*3B
$GPGSV,4,1,16,13,55,293,34,28,65,002,32,11,18,068,31,30,54,080,29*78
$GPGSV,4,2,16,07,24,104,28,01,10,082,22,15,23,312,22,17,48,174,20*73
$GPGSV,4,3,16,04,06,059,,05,05,240,,20,02,281,,09,,,*43
$GPGSV,4,4,16,10,,,,19,,,,32,,,,31,,,*74
$GPGGA,072157.0,3543.784662,N,05123.256363,E,1,06,1.4,1332.2,M,-14.0,M,,*4A
$GPVTG,348.6,T,344.9,M,20.7,N,38.3,K,A*2D
$GPRMC,072157.0,A,3543.784662,N,05123.256363,E,20.7,348.6,220615,3.7,E,A*33
$GPGSA,A,3,11,13,15,17,28,30,,,,,,,2.5,1.4,2.0*3B
$GPGSV,4,1,16,13,55,293,34,28,65,002,31,07,24,104,28,30,54,080,27*7E
$GPGSV,4,2,16,15,23,312,26,11,18,068,25,01,10,082,22,17,48,174,20*79
$GPGSV,4,3,16,04,06,059,,05,05,240,,20,02,281,,09,,,*43
$GPGSV,4,4,16,10,,,,19,,,,32,,,,31,,,*74
$GPGGA,072158.0,3543.789628,N,05123.254061,E,1,06,1.4,1332.4,M,-14.0,M,,*43
$GPVTG,347.2,T,343.5,M,20.5,N,37.9,K,A*2A
$GPRMC,072158.0,A,3543.789628,N,05123.254061,E,20.5,347.2,220615,3.7,E,A*35
$GPGSA,A,3,11,13,15,17,28,30,,,,,,,2.5,1.4,2.0*3B
$GPGSV,4,1,16,13,55,293,34,28,65,002,32,11,18,068,23,07,24,104,23*7F
$GPGSV,4,2,16,15,23,312,23,30,54,080,22,01,10,082,22,17,48,174,20*76
$GPGSV,4,3,16,04,06,059,,05,05,240,,20,02,281,,09,,,*43
$GPGSV,4,4,16,10,,,,19,,,,32,,,,31,,,*74
$GPGGA,072159.0,3543.794764,N,05123.253190,E,1,06,1.4,1332.4,M,-14.0,M,,*4F
$GPVTG,347.6,T,343.9,M,19.8,N,36.6,K,A*2B
$GPRMC,072159.0,A,3543.794764,N,05123.253190,E,19.8,347.6,220615,3.7,E,A*3A
$GPGSA,A,3,11,13,15,17,28,30,,,,,,,2.5,1.4,2.0*3B
$GPGSV,4,1,16,13,55,293,35,28,65,002,31,30,54,080,29,11,18,068,27*7D
$GPGSV,4,2,16,07,24,104,26,01,10,082,24,15,23,312,22,17,48,174,20*7B
$GPGSV,4,3,16,04,06,059,,05,05,240,,20,02,281,,09,,,*43
$GPGSV,4,4,16,10,,,,19,,,,32,,,,31,,,*74
$GPGGA,072159.9,3543.801071,N,05123.250055,E,1,06,4.1,1331.4,M,-14.0,M,,*4E
$GPVTG,346.4,T,342.7,M,21.1,N,39.1,K,A*2D
$GPRMC,072159.9,A,3543.801071,N,05123.250055,E,21.1,346.4,220615,3.7,E,A*39
$GPGSA,A,3,11,13,15,17,28,30,,,,,,,4.9,4.1,2.7*36
$GPGSV,4,1,16,13,55,293,35,28,65,002,31,11,18,068,29,30,54,080,28*72
$GPGSV,4,2,16,15,23,312,27,01,10,082,24,07,24,104,23,04,06,059,*7F
$GPGSV,4,3,16,05,05,240,,17,48,174,,20,02,281,,09,,,*45
$GPGSV,4,4,16,10,,,,19,,,,32,,,,31,,,*74
$GPGGA,072201.0,3543.806883,N,05123.248648,E,1,06,4.1,1331.8,M,-14.0,M,,*44
$GPVTG,347.8,T,344.1,M,20.5,N,38.0,K,A*25
$GPRMC,072201.0,A,3543.806883,N,05123.248648,E,20.5,347.8,220615,3.7,E,A*37
$GPGSA,A,3,11,13,15,17,28,30,,,,,,,4.9,4.1,2.7*36
$GPGSV,4,1,16,13,55,293,34,28,65,002,32,15,23,312,27,30,54,080,27*73
$GPGSV,4,2,16,11,18,068,26,01,10,082,23,07,24,104,23,04,06,059,*7B
$GPGSV,4,3,16,05,05,240,,17,48,174,,20,02,281,,09,,,*45
$GPGSV,4,4,16,10,,,,19,,,,32,,,,31,,,*74
$GPGGA,072201.9,3543.812569,N,05123.248144,E,1,06,4.1,1332.3,M,-14.0,M,,*42
$GPVTG,349.0,T,345.3,M,20.5,N,37.9,K,A*26
$GPRMC,072201.9,A,3543.812569,N,05123.248144,E,20.5,349.0,220615,3.7,E,A*3F
$GPGSA,A,3,11,13,15,17,28,30,,,,,,,4.9,4.1,2.7*36
$GPGSV,4,1,16,13,55,293,35,28,65,002,31,30,54,080,29,11,18,068,29*73
$GPGSV,4,2,16,01,10,082,26,15,23,312,25,07,24,104,24,04,06,059,*78
$GPGSV,4,3,16,05,05,240,,17,48,174,,20,02,281,,09,,,*45
$GPGSV,4,4,16,10,,,,19,,,,32,,,,31,,,*74
$GPGGA,072203.0,3543.817738,N,05123.247726,E,1,06,4.1,1333.0,M,-14.0,M,,*45
$GPVTG,350.0,T,346.3,M,19.8,N,36.8,K,A*2A
$GPRMC,072203.0,A,3543.817738,N,05123.247726,E,19.8,350.0,220615,3.7,E,A*35
$GPGSA,A,3,11,13,15,17,28,30,,,,,,,4.9,4.1,2.7*36
$GPGSV,4,1,16,13,55,293,34,28,65,002,31,30,54,080,30,11,18,068,28*7B
$GPGSV,4,2,16,07,24,104,27,01,10,082,26,15,23,312,26,17,48,174,18*77
$GPGSV,4,3,16,04,06,059,,05,05,240,,20,02,281,,09,,,*43
$GPGSV,4,4,16,10,,,,19,,,,32,,,,31,,,*74
$GPGGA,072204.0,3543.820477,N,05123.246516,E,1,06,1.4,1334.6,M,-14.0,M,,*4F
$GPVTG,348.7,T,345.0,M,18.4,N,34.1,K,A*22
$GPRMC,072204.0,A,3543.820477,N,05123.246516,E,18.4,348.7,220615,3.7,E,A*3D
$GPGSA,A,3,11,13,15,17,28,30,,,,,,,2.5,1.4,2.1*3A
$GPGSV,4,1,16,13,55,293,33,28,65,002,31,11,18,068,29,07,24,104,28*7A
$GPGSV,4,2,16,15,23,312,27,30,54,080,26,17,48,174,21,01,10,082,16*70
$GPGSV,4,3,16,04,06,059,,05,05,240,,20,02,281,,09,,,*43
$GPGSV,4,4,16,10,,,,19,,,,32,,,,31,,,*74
$GPGGA,072205.0,3543.825907,N,05123.244129,E,1,06,1.4,1334.7,M,-14.0,M,,*4A
$GPVTG,347.4,T,343.7,M,20.3,N,37.5,K,A*24
$GPRMC,072205.0,A,3543.825907,N,05123.244129,E,20.3,347.4,220615,3.7,E,A*39
$GPGSA,A,3,11,13,15,17,28,30,,,,,,,2.5,1.4,2.1*3A
$GPGSV,4,1,16,13,55,293,34,15,23,312,31,28,65,002,30,30,54,080,29*78
$GPGSV,4,2,16,07,24,104,29,11,18,068,26,17,48,174,23,01,10,082,16*70
$GPGSV,4,3,16,04,06,059,,05,05,240,,20,02,281,,09,,,*43
$GPGSV,4,4,16,10,,,,19,,,,32,,,,31,,,*74
$GPGGA,072206.0,3543.831295,N,05123.242560,E,1,06,1.4,1335.2,M,-14.0,M,,*47
$GPVTG,345.9,T,342.2,M,21.3,N,39.4,K,A*21
$GPRMC,072206.0,A,3543.831295,N,05123.242560,E,21.3,345.9,220615,3.7,E,A*3E
$GPGSA,A,3,11,13,15,17,28,30,,,,,,,2.5,1.4,2.1*3A
$GPGSV,4,1,16,13,55,293,35,30,54,080,29,11,18,068,28,07,24,104,28*75
$GPGSV,4,2,16,15,23,312,27,28,65,002,27,01,10,082,18,17,48,174,18*74
$GPGSV,4,3,16,05,05,240,15,04,06,059,,20,02,281,,09,,,*47
$GPGSV,4,4,16,10,,,,19,,,,32,,,,31,,,*74
$GPGGA,072207.0,3543.836544,N,05123.241766,E,1,06,1.4,1335.3,M,-14.0,M,,*4C
$GPVTG,347.0,T,343.3,M,20.2,N,37.4,K,A*24
$GPRMC,072207.0,A,3543.836544,N,05123.241766,E,20.2,347.0,220615,3.7,E,A*3F
$GPGSA,A,3,11,13,15,17,28,30,,,,,,,2.5,1.4,2.1*3A
$GPGSV,4,1,16,13,55,293,35,30,54,080,31,11,18,068,29,28,65,002,28*72
$GPGSV,4,2,16,15,23,312,28,07,24,104,23,01,10,082,18,17,48,174,18*70
$GPGSV,4,3,16,05,05,240,15,04,06,059,,20,02,281,,09,,,*47
$GPGSV,4,4,16,10,,,,19,,,,32,,,,31,,,*74
$GPGGA,072208.0,3543.842104,N,05123.240509,E,1,06,1.4,1335.6,M,-14.0,M,,*4F
$GPVTG,348.2,T,344.5,M,20.5,N,37.9,K,A*22
$GPRMC,072208.0,A,3543.842104,N,05123.240509,E,20.5,348.2,220615,3.7,E,A*33
$GPGSA,A,3,11,13,15,17,28,30,,,,,,,2.5,1.4,2.1*3A
$GPGSV,4,1,16,13,55,293,35,28,65,002,28,30,54,080,28,11,18,068,27*74
$GPGSV,4,2,16,15,23,312,26,07,24,104,23,01,10,082,18,17,48,174,18*7E
$GPGSV,4,3,16,05,05,240,15,04,06,059,,20,02,281,,09,,,*47
$GPGSV,4,4,16,10,,,,19,,,,32,,,,31,,,*74
$GPGGA,072209.0,3543.848213,N,05123.238768,E,1,06,4.0,1336.4,M,-14.0,M,,*4B
$GPVTG,347.8,T,344.2,M,20.7,N,38.4,K,A*20
$GPRMC,072209.0,A,3543.848213,N,05123.238768,E,20.7,347.8,220615,3.7,E,A*30
$GPGSA,A,3,11,13,15,17,28,30,,,,,,,4.9,4.0,2.7*37
$GPGSV,4,1,16,13,55,293,36,11,18,068,31,15,23,312,30,30,54,080,29*76
$GPGSV,4,2,16,07,24,104,29,28,65,002,27,01,10,082,25,04,06,059,*7A
$GPGSV,4,3,16,05,05,240,,17,48,174,,20,02,281,,09,,,*45
$GPGSV,4,4,16,10,,,,19,,,,32,,,,31,,,*74
$GPGGA,072210.0,3543.854925,N,05123.237728,E,1,06,4.0,1337.1,M,-14.0,M,,*4F
$GPVTG,347.7,T,344.0,M,20.8,N,38.5,K,A*23
$GPRMC,072210.0,A,3543.854925,N,05123.237728,E,20.8,347.7,220615,3.7,E,A*30
$GPGSA,A,3,11,13,15,17,28,30,,,,,,,4.9,4.0,2.7*37
$GPGSV,4,1,16,13,55,293,36,30,54,080,29,07,24,104,28,28,65,002,28*7A
$GPGSV,4,2,16,15,23,312,25,01,10,082,23,11,18,068,23,04,06,059,*79
$GPGSV,4,3,16,05,05,240,,17,48,174,,20,02,281,,09,,,*45
$GPGSV,4,4,16,10,,,,19,,,,32,,,,31,,,*74
$GPGGA,072211.0,3543.860227,N,05123.236001,E,1,06,3.1,1337.1,M,-14.0,M,,*4B
$GPVTG,348.1,T,344.4,M,20.7,N,38.3,K,A*27
$GPRMC,072211.0,A,3543.860227,N,05123.236001,E,20.7,348.1,220615,3.7,E,A*34
$GPGSA,A,3,11,13,15,17,28,30,,,,,,,3.2,3.1,0.9*31
$GPGSV,4,1,16,13,55,293,36,30,54,080,30,28,65,002,28,07,24,104,27*7D
$GPGSV,4,2,16,11,18,068,26,01,10,082,21,15,23,312,20,04,06,059,*7B
$GPGSV,4,3,16,05,05,240,,17,48,174,,20,02,281,,09,,,*45
$GPGSV,4,4,16,10,,,,19,,,,32,,,,31,,,*74
$GPGGA,072212.0,3543.865944,N,05123.234407,E,1,06,4.0,1337.3,M,-14.0,M,,*47
$GPVTG,348.2,T,344.5,M,20.9,N,38.6,K,A*2E
$GPRMC,072212.0,A,3543.865944,N,05123.234407,E,20.9,348.2,220615,3.7,E,A*31
$GPGSA,A,3,11,13,15,17,28,30,,,,,,,4.8,4.0,2.7*36
$GPGSV,4,1,16,13,55,293,35,11,18,068,30,28,65,002,29,30,54,080,28*73
$GPGSV,4,2,16,15,23,312,27,07,24,104,25,01,10,082,20,17,48,174,17*7D
$GPGSV,4,3,16,05,05,240,17,04,06,059,,20,02,281,,09,,,*45
$GPGSV,4,4,16,10,,,,19,,,,32,,,,31,,,*74
$GPGGA,072213.0,3543.871445,N,05123.233340,E,1,06,1.4,1338.2,M,-14.0,M,,*43
$GPVTG,348.7,T,345.0,M,20.5,N,38.1,K,A*24
$GPRMC,072213.0,A,3543.871445,N,05123.233340,E,20.5,348.7,220615,3.7,E,A*33
$GPGSA,A,3,11,13,15,17,28,30,,,,,,,2.5,1.4,2.1*3A
$GPGSV,4,1,16,13,55,293,34,15,23,312,31,11,18,068,30,28,65,002,28*74
$GPGSV,4,2,16,30,53,080,27,07,24,104,25,01,11,082,20,17,48,174,17*74
$GPGSV,4,3,16,05,05,240,17,04,06,059,,20,02,281,,09,,,*45
$GPGSV,4,4,16,10,,,,19,,,,32,,,,31,,,*74
$GPGGA,072214.0,3543.875353,N,05123.231929,E,1,06,4.0,1338.2,M,-14.0,M,,*46
$GPVTG,347.5,T,343.8,M,19.1,N,35.3,K,A*26
$GPRMC,072214.0,A,3543.875353,N,05123.231929,E,19.1,347.5,220615,3.7,E,A*34
$GPGSA,A,3,11,13,15,17,28,30,,,,,,,4.8,4.0,2.7*36
$GPGSV,4,1,16,13,55,293,35,07,24,104,30,30,53,080,29,15,23,312,28*79
$GPGSV,4,2,16,28,65,002,28,11,18,068,25,01,11,082,24,04,06,059,*7A
$GPGSV,4,3,16,05,05,240,,17,48,174,,20,02,281,,09,,,*45
$GPGSV,4,4,16,10,,,,19,,,,32,,,,31,,,*74
$GPGGA,072214.9,3543.880333,N,05123.230054,E,1,06,4.0,1339.1,M,-14.0,M,,*43
$GPVTG,347.6,T,343.9,M,19.4,N,35.9,K,A*2B
$GPRMC,072214.9,A,3543.880333,N,05123.230054,E,19.4,347.6,220615,3.7,E,A*35
$GPGSA,A,3,11,13,15,17,28,30,,,,,,,4.8,4.0,2.7*36
$GPGSV,4,1,16,13,55,293,36,15,23,312,31,11,18,068,30,30,53,080,29*71
$GPGSV,4,2,16,28,65,002,28,07,24,104,26,01,11,082,25,17,48,174,21*7E
$GPGSV,4,3,16,04,06,059,,05,05,240,,20,02,281,,09,,,*43
$GPGSV,4,4,16,10,,,,19,,,,32,,,,31,,,*74
$GPGGA,072216.0,3543.885250,N,05123.229120,E,1,06,1.4,1339.0,M,-14.0,M,,*43
$GPVTG,348.7,T,345.0,M,19.1,N,35.4,K,A*22
$GPRMC,072216.0,A,3543.885250,N,05123.229120,E,19.1,348.7,220615,3.7,E,A*3E
$GPGSA,A,3,11,13,15,17,28,30,,,,,,,2.5,1.4,2.1*3A
$GPGSV,4,1,16,13,55,293,36,11,18,068,30,30,53,080,29,28,65,002,29*76
$GPGSV,4,2,16,07,24,104,26,15,23,312,25,01,11,082,24,17,48,174,22*7F
$GPGSV,4,3,16,04,06,059,,05,05,240,,20,02,281,,09,,,*43
$GPGSV,4,4,16,10,,,,19,,,,32,,,,31,,,*74
$GPGGA,072217.0,3543.889983,N,05123.227451,E,1,06,1.4,1338.7,M,-14.0,M,,*40
$GPVTG,347.5,T,343.8,M,18.6,N,34.5,K,A*27
$GPRMC,072217.0,A,3543.889983,N,05123.227451,E,18.6,347.5,220615,3.7,E,A*30
$GPGSA,A,3,11,13,15,17,28,30,,,,,,,2.5,1.4,2.1*3A
$GPGSV,4,1,16,13,55,293,36,28,65,002,29,30,53,080,28,07,24,104,24*71
$GPGSV,4,2,16,11,18,068,24,01,11,082,22,17,48,174,21,15,23,312,18*75
$GPGSV,4,3,16,04,06,059,,05,05,240,,20,02,281,,09,,,*43
$GPGSV,4,4,16,10,,,,19,,,,32,,,,31,,,*74
$GPGGA,072218.0,3543.894701,N,05123.226094,E,1,06,1.4,1338.5,M,-14.0,M,,*49
$GPVTG,347.4,T,343.8,M,18.1,N,33.5,K,A*26
$GPRMC,072218.0,A,3543.894701,N,05123.226094,E,18.1,347.4,220615,3.7,E,A*3D
$GPGSA,A,3,11,13,15,17,28,30,,,,,,,2.5,1.4,2.1*3A
$GPGSV,4,1,16,13,55,293,36,30,53,080,30,28,65,002,29,11,18,068,26*79
$GPGSV,4,2,16,07,24,104,26,17,48,174,25,01,11,082,22,15,23,312,18*70
$GPGSV,4,3,16,04,06,059,,05,05,240,,20,02,281,,09,,,*43
$GPGSV,4,4,16,10,,,,19,,,,32,,,,31,,,*74
$GPGGA,072218.9,3543.899979,N,05123.224447,E,1,06,1.4,1338.2,M,-14.0,M,,*43
$GPVTG,347.5,T,343.8,M,18.5,N,34.2,K,A*23
$GPRMC,072218.9,A,3543.899979,N,05123.224447,E,18.5,347.5,220615,3.7,E,A*35
$GPGSA,A,3,11,13,15,17,28,30,,,,,,,2.5,1.4,2.1*3A
$GPGSV,4,1,16,13,55,293,36,28,65,002,29,11,18,068,28,30,53,080,27*71
$GPGSV,4,2,16,07,24,104,26,17,48,174,22,01,11,082,22,15,23,312,18*77
$GPGSV,4,3,16,04,06,059,,05,05,240,,20,02,281,,09,,,*43
$GPGSV,4,4,16,10,,,,19,,,,32,,,,31,,,*74
$GPGGA,072220.0,3543.905139,N,05123.222959,E,1,06,1.8,1338.0,M,-14.0,M,,*43
$GPVTG,347.2,T,343.5,M,18.3,N,33.8,K,A*22
$GPRMC,072220.0,A,3543.905139,N,05123.222959,E,18.3,347.2,220615,3.7,E,A*3A
$GPGSA,A,3,11,13,15,17,28,30,,,,,,,3.5,1.8,3.0*37
$GPGSV,4,1,16,13,55,293,36,28,65,002,29,11,18,068,28,30,53,080,27*71
$GPGSV,4,2,16,07,24,104,26,17,48,174,22,01,11,082,22,15,23,312,18*77
$GPGSV,4,3,16,04,06,059,,05,05,240,,20,02,281,,09,,,*43
$GPGSV,4,4,16,10,,,,19,,,,32,,,,31,,,*74
$GPGGA,072220.9,3543.910091,N,05123.221583,E,1,06,1.8,1338.1,M,-14.0,M,,*44
$GPVTG,347.2,T,343.5,M,18.3,N,33.8,K,A*22
$GPRMC,072220.9,A,3543.910091,N,05123.221583,E,18.3,347.2,220615,3.7,E,A*3C
$GPGSA,A,3,11,13,15,17,28,30,,,,,,,3.5,1.8,3.0*37
$GPGSV,4,1,16,13,55,293,36,28,65,002,30,30,53,080,27,07,24,104,26*74
$GPGSV,4,2,16,15,23,312,23,17,48,174,22,11,18,068,22,01,11,082,*78
$GPGSV,4,3,16,04,06,059,,05,05,240,,20,02,281,,09,,,*43
$GPGSV,4,4,16,10,,,,19,,,,32,,,,31,,,*74
$GPGGA,072222.0,3543.914055,N,05123.219773,E,1,06,4.0,1337.9,M,-14.0,M,,*4F
$GPVTG,344.9,T,341.2,M,17.2,N,31.9,K,A*22
$GPRMC,072222.0,A,3543.914055,N,05123.219773,E,17.2,344.9,220615,3.7,E,A*3B
$GPGSA,A,3,11,13,15,17,28,30,,,,,,,4.8,4.0,2.7*36
$GPGSV,4,1,16,13,55,293,35,30,53,080,29,28,65,002,27,11,18,068,24*7E
$GPGSV,4,2,16,07,24,104,23,01,11,082,20,15,23,312,19,04,06,059,*77
$GPGSV,4,3,16,05,05,240,,17,48,174,,20,02,281,,09,,,*45
$GPGSV,4,4,16,10,,,,19,,,,32,,,,31,,,*74
$GPGGA,072223.0,3543.916659,N,05123.218589,E,1,06,4.0,1337.6,M,-14.0,M,,*4F
$GPVTG,345.8,T,342.2,M,14.6,N,27.1,K,A*29
$GPRMC,072223.0,A,3543.916659,N,05123.218589,E,14.6,345.8,220615,3.7,E,A*33
$GPGSA,A,3,11,13,15,17,28,30,,,,,,,4.8,4.0,2.7*36
$GPGSV,4,1,16,13,55,293,35,28,65,002,29,30,53,080,28,11,18,068,25*70
$GPGSV,4,2,16,07,24,104,25,01,11,082,20,15,23,312,19,04,06,059,*71
$GPGSV,4,3,16,05,05,240,,17,48,174,,20,02,281,,09,,,*45
$GPGSV,4,4,16,10,,,,19,,,,32,,,,31,,,*74
$GPGGA,072224.0,3543.921042,N,05123.217427,E,1,06,4.0,1337.6,M,-14.0,M,,*4A
$GPVTG,345.1,T,341.4,M,15.4,N,28.6,K,A*2E
$GPRMC,072224.0,A,3543.921042,N,05123.217427,E,15.4,345.1,220615,3.7,E,A*3C
$GPGSA,A,3,11,13,15,17,28,30,,,,,,,4.8,4.0,2.7*36
$GPGSV,4,1,16,13,55,293,34,30,53,080,29,28,65,002,28,11,18,068,25*71
$GPGSV,4,2,16,07,24,104,25,15,23,312,22,01,11,082,,04,06,059,*7B
$GPGSV,4,3,16,05,05,240,,17,48,174,,20,02,281,,09,,,*45
$GPGSV,4,4,16,10,,,,19,,,,32,,,,31,,,*74
$GPGGA,072225.0,3543.928582,N,05123.216627,E,1,06,4.0,1338.2,M,-14.0,M,,*43
$GPVTG,348.7,T,345.0,M,18.0,N,33.4,K,A*24
$GPRMC,072225.0,A,3543.928582,N,05123.216627,E,18.0,348.7,220615,3.7,E,A*3C
$GPGSA,A,3,11,13,15,17,28,30,,,,,,,4.8,4.0,2.7*36
$GPGSV,4,1,16,13,55,293,36,28,65,002,30,15,23,312,30,30,53,080,28*7D
$GPGSV,4,2,16,11,18,068,27,07,24,104,26,01,11,082,,04,06,059,*7F
$GPGSV,4,3,16,05,05,240,,17,48,174,,20,02,281,,09,,,*45
$GPGSV,4,4,16,10,,,,19,,,,32,,,,31,,,*74
$GPGGA,072226.0,3543.934774,N,05123.216198,E,1,05,4.0,1339.3,M,-14.0,M,,*46
$GPVTG,347.0,T,343.3,M,18.6,N,34.5,K,A*29
$GPRMC,072226.0,A,3543.934774,N,05123.216198,E,18.6,347.0,220615,3.7,E,A*34
$GPGSA,A,3,11,13,15,28,30,,,,,,,,4.8,4.0,2.7*30
$GPGSV,4,1,16,13,55,293,36,28,65,002,30,15,23,312,30,30,53,080,28*7D
$GPGSV,4,2,16,11,18,068,27,07,24,104,26,01,11,082,,04,06,059,*7F
$GPGSV,4,3,16,05,05,240,,17,48,174,,20,02,281,,09,,,*45
$GPGSV,4,4,16,10,,,,19,,,,32,,,,31,,,*74
$GPGGA,072227.0,3543.939828,N,05123.214764,E,1,05,4.0,1339.7,M,-14.0,M,,*4F
$GPVTG,347.0,T,343.3,M,18.6,N,34.5,K,A*29
$GPRMC,072227.0,A,3543.939828,N,05123.214764,E,18.6,347.0,220615,3.7,E,A*39
$GPGSA,A,3,11,13,15,28,30,,,,,,,,4.8,4.0,2.7*30
$GPGSV,4,1,16,13,55,293,35,07,24,104,30,28,65,002,30,11,18,068,28*75
$GPGSV,4,2,16,30,53,080,25,15,23,312,25,01,11,082,22,04,06,059,*75
$GPGSV,4,3,16,05,05,240,,17,48,174,,20,02,281,,09,,,*45
$GPGSV,4,4,16,10,,,,19,,,,32,,,,31,,,*74
$GPGGA,072227.9,3543.944817,N,05123.212046,E,1,05,4.0,1339.7,M,-14.0,M,,*41
$GPVTG,347.0,T,343.3,M,18.4,N,34.1,K,A*2F
$GPRMC,072227.9,A,3543.944817,N,05123.212046,E,18.4,347.0,220615,3.7,E,A*35
$GPGSA,A,3,11,13,15,28,30,,,,,,,,4.8,4.0,2.7*30
$GPGSV,4,1,16,13,55,293,34,07,24,104,32,15,23,312,31,28,65,002,30*7C
$GPGSV,4,2,16,11,18,068,30,01,11,082,27,30,53,080,25,17,48,174,17*76
$GPGSV,4,3,16,04,06,059,,05,05,240,,20,02,281,,09,,,*43
$GPGSV,4,4,16,10,,,,19,,,,32,,,,31,,,*74
$GPGGA,072229.0,3543.949171,N,05123.209600,E,1,06,1.4,1342.2,M,-14.0,M,,*47
$GPVTG,345.8,T,342.1,M,17.8,N,32.9,K,A*2B
$GPRMC,072229.0,A,3543.949171,N,05123.209600,E,17.8,345.8,220615,3.7,E,A*31
$GPGSA,A,3,11,13,15,17,28,30,,,,,,,2.5,1.4,2.1*3A
$GPGSV,4,1,16,13,55,293,34,07,24,104,30,28,65,002,29,30,53,080,27*79
$GPGSV,4,2,16,15,23,312,27,11,18,068,27,01,11,082,25,17,48,174,17*78
$GPGSV,4,3,16,04,06,059,,05,05,240,,20,02,281,,09,,,*43
$GPGSV,4,4,16,10,,,,19,,,,32,,,,31,,,*74
$GPGGA,072230.0,3543.954415,N,05123.208203,E,1,06,1.4,1343.3,M,-14.0,M,,*42
$GPVTG,346.8,T,343.1,M,19.1,N,35.4,K,A*24
$GPRMC,072230.0,A,3543.954415,N,05123.208203,E,19.1,346.8,220615,3.7,E,A*30
$GPGSA,A,3,11,13,15,17,28,30,,,,,,,2.5,1.4,2.1*3A
$GPGSV,4,1,16,13,55,291,34,07,24,104,29,28,65,007,29,30,53,082,26*75
$GPGSV,4,2,16,15,23,310,22,01,11,082,22,11,18,067,19,17,49,172,17*7D
$GPGSV,4,3,16,04,06,059,,05,05,240,,20,02,281,,09,,,*43
$GPGSV,4,4,16,10,,,,19,,,,32,,,,31,,,*74
$GPGGA,072231.0,3543.959855,N,05123.206394,E,1,06,1.4,1344.0,M,-14.0,M,,*43
$GPVTG,346.9,T,343.2,M,19.3,N,35.8,K,A*28
$GPRMC,072231.0,A,3543.959855,N,05123.206394,E,19.3,346.9,220615,3.7,E,A*36
$GPGSA,A,3,11,13,15,17,28,30,,,,,,,2.5,1.4,2.1*3A
$GPGSV,4,1,16,13,55,293,35,30,53,080,29,28,65,002,28,07,24,104,26*70
$GPGSV,4,2,16,01,11,082,22,15,23,312,22,11,18,068,20,17,49,174,17*7C
$GPGSV,4,3,16,04,06,059,,05,05,240,,20,02,281,,09,,,*43
$GPGSV,4,4,16,10,,,,19,,,,32,,,,31,,,*74
$GPGGA,072232.0,3543.965249,N,05123.204789,E,1,06,1.4,1344.4,M,-14.0,M,,*46
$GPVTG,348.6,T,344.9,M,19.0,N,35.2,K,A*2C
$GPRMC,072232.0,A,3543.965249,N,05123.204789,E,19.0,348.6,220615,3.7,E,A*35
$GPGSA,A,3,11,13,15,17,28,30,,,,,,,2.5,1.4,2.1*3A
$GPGSV,4,1,16,13,55,293,34,30,53,080,29,28,65,002,27,15,23,312,26*7F
$GPGSV,4,2,16,07,24,104,25,01,11,082,22,11,18,068,21,17,49,174,18*74
$GPGSV,4,3,16,04,06,059,,05,05,240,,20,02,281,,09,,,*43
$GPGSV,4,4,16,10,,,,19,,,,32,,,,31,,,*74
$GPGGA,072233.0,3543.969659,N,05123.203043,E,1,06,1.4,1344.9,M,-14.0,M,,*45
$GPVTG,347.1,T,343.4,M,18.7,N,34.7,K,A*2C
$GPRMC,072233.0,A,3543.969659,N,05123.203043,E,18.7,347.1,220615,3.7,E,A*35
$GPGSA,A,3,11,13,15,17,28,30,,,,,,,2.5,1.4,2.1*3A
$GPGSV,4,1,16,13,55,293,32,30,53,080,28,15,23,312,28,07,24,104,27*79
$GPGSV,4,2,16,28,65,002,26,01,11,082,22,11,18,068,21,17,49,174,18*78
$GPGSV,4,3,16,04,06,059,,05,05,240,,20,02,281,,09,,,*43
$GPGSV,4,4,16,10,,,,19,,,,32,,,,31,,,*74
$GPGGA,072234.0,3543.975059,N,05123.202848,E,1,06,1.4,1345.2,M,-14.0,M,,*41
$GPVTG,349.4,T,345.7,M,18.8,N,34.7,K,A*2D
$GPRMC,072234.0,A,3543.975059,N,05123.202848,E,18.8,349.4,220615,3.7,E,A*3F
$GPGSA,A,3,11,13,15,17,28,30,,,,,,,2.5,1.4,2.1*3A
$GPGSV,4,1,16,13,55,293,34,28,65,002,30,30,53,080,29,15,23,312,25*7A
$GPGSV,4,2,16,17,49,174,23,07,24,104,22,01,11,082,22,11,18,068,21*7B
$GPGSV,4,3,16,04,06,059,,05,05,240,,20,02,281,,09,,,*43
$GPGSV,4,4,16,10,,,,19,,,,32,,,,31,,,*74
$GPGGA,072235.0,3543.980553,N,05123.203445,E,1,06,1.8,1347.3,M,-14.0,M,,*4A
$GPVTG,352.2,T,348.5,M,18.1,N,33.4,K,A*23
$GPRMC,072235.0,A,3543.980553,N,05123.203445,E,18.1,352.2,220615,3.7,E,A*3E
$GPGSA,A,3,11,13,15,17,28,30,,,,,,,3.7,1.8,3.2*37
$GPGSV,4,1,16,13,55,293,31,30,53,080,29,11,18,068,27,28,65,002,25*7B
$GPGSV,4,2,16,17,49,174,23,07,24,104,22,15,23,312,22,01,11,082,*7A
$GPGSV,4,3,16,04,06,059,,05,05,240,,20,02,281,,09,,,*43
$GPGSV,4,4,16,10,,,,19,,,,32,,,,31,,,*74
$GPGGA,072236.0,3543.984637,N,05123.201245,E,1,06,4.0,1348.1,M,-14.0,M,,*48
$GPVTG,349.7,T,346.0,M,17.7,N,32.8,K,A*23
$GPRMC,072236.0,A,3543.984637,N,05123.201245,E,17.7,349.7,220615,3.7,E,A*3A
$GPGSA,A,3,11,13,15,17,28,30,,,,,,,4.8,4.0,2.7*36
$GPGSV,4,1,16,13,55,293,33,30,53,080,33,07,24,104,30,15,23,312,28*74
$GPGSV,4,2,16,28,65,002,27,11,18,068,27,17,49,174,24,01,11,082,*70
$GPGSV,4,3,16,04,06,059,,05,05,240,,20,02,281,,09,,,*43
$GPGSV,4,4,16,10,,,,19,,,,32,,,,31,,,*74
$GPGGA,072237.0,3543.991054,N,05123.200421,E,1,06,1.8,1348.3,M,-14.0,M,,*44
$GPVTG,350.5,T,346.8,M,18.2,N,33.7,K,A*25
$GPRMC,072237.0,A,3543.991054,N,05123.200421,E,18.2,350.5,220615,3.7,E,A*39
$GPGSA,A,3,11,13,15,17,28,30,,,,,,,3.7,1.8,3.2*37
$GPGSV,4,1,16,13,55,293,32,30,53,080,30,15,23,312,28,28,65,002,28*70
$GPGSV,4,2,16,07,24,104,28,17,49,174,21,01,11,082,,04,06,059,*79
$GPGSV,4,3,16,05,05,240,,11,18,068,,20,02,281,,09,,,*4A
$GPGSV,4,4,16,10,,,,19,,,,32,,,,31,,,*74
$GPGGA,072238.0,3543.997223,N,05123.199994,E,1,06,1.8,1347.9,M,-14.0,M,,*4A
$GPVTG,352.2,T,348.5,M,18.5,N,34.2,K,A*26
$GPRMC,072238.0,A,3543.997223,N,05123.199994,E,18.5,352.2,220615,3.7,E,A*30
$GPGSA,A,3,11,13,15,17,28,30,,,,,,,3.7,1.8,3.2*37
$GPGSV,4,1,16,13,55,293,33,30,53,080,30,15,23,312,29,28,65,002,29*71
$GPGSV,4,2,16,07,24,104,26,17,49,174,22,11,18,068,17,01,11,082,*7B
$GPGSV,4,3,16,04,06,059,,05,05,240,,20,02,281,,09,,,*43
$GPGSV,4,4,16,10,,,,19,,,,32,,,,31,,,*74
$GPGGA,072239.0,3544.001653,N,05123.199217,E,1,06,1.4,1348.3,M,-14.0,M,,*40
$GPVTG,355.3,T,351.6,M,18.3,N,33.9,K,A*21
$GPRMC,072239.0,A,3544.001653,N,05123.199217,E,18.3,355.3,220615,3.7,E,A*33
$GPGSA,A,3,11,13,15,17,28,30,,,,,,,2.5,1.4,2.1*3A
$GPGSV,4,1,16,13,55,293,34,15,23,312,29,30,53,080,29,28,65,002,27*70
$GPGSV,4,2,16,07,24,104,26,17,49,174,24,11,18,068,17,01,11,082,*7D
$GPGSV,4,3,16,04,06,059,,05,05,240,,20,02,281,,09,,,*43
$GPGSV,4,4,16,10,,,,19,,,,32,,,,31,,,*74
$GPGGA,072240.0,3544.009102,N,05123.199299,E,1,06,1.4,1348.8,M,-14.0,M,,*48
$GPVTG,355.5,T,351.8,M,18.5,N,34.2,K,A*23
$GPRMC,072240.0,A,3544.009102,N,05123.199299,E,18.5,355.5,220615,3.7,E,A*30
$GPGSA,A,3,11,13,15,17,28,30,,,,,,,2.5,1.4,2.1*3A
$GPGSV,4,1,16,13,55,293,34,15,23,312,29,30,53,080,29,28,65,002,27*70
$GPGSV,4,2,16,07,24,104,26,17,49,174,24,11,18,068,17,01,11,082,*7D
$GPGSV,4,3,16,04,06,059,,05,05,240,,20,02,281,,09,,,*43
$GPGSV,4,4,16,10,,,,19,,,,32,,,,31,,,*74
$GPGGA,072240.9,3544.014216,N,05123.198808,E,1,06,1.4,1348.8,M,-14.0,M,,*48
$GPVTG,355.5,T,351.8,M,18.5,N,34.2,K,A*23
$GPRMC,072240.9,A,3544.014216,N,05123.198808,E,18.5,355.5,220615,3.7,E,A*30
$GPGSA,A,3,11,13,15,17,28,30,,,,,,,2.5,1.4,2.1*3A
$GPGSV,4,1,16,13,55,293,34,30,53,080,31,15,23,312,27,07,24,104,26*79
$GPGSV,4,2,16,28,65,002,23,17,49,174,22,11,18,068,22,01,11,082,*77
$GPGSV,4,3,16,04,06,059,,05,05,240,,20,02,281,,09,,,*43
$GPGSV,4,4,16,10,,,,19,,,,32,,,,31,,,*74
$GPGGA,072242.0,3544.015978,N,05123.198336,E,1,06,1.4,1349.0,M,-14.0,M,,*4E
$GPVTG,353.7,T,350.0,M,14.9,N,27.5,K,A*2B
$GPRMC,072242.0,A,3544.015978,N,05123.198336,E,14.9,353.7,220615,3.7,E,A*3B
$GPGSA,A,3,11,13,15,17,28,30,,,,,,,2.5,1.4,2.1*3A
$GPGSV,4,1,16,13,55,293,32,30,53,080,32,28,65,002,31,15,23,312,28*7A
$GPGSV,4,2,16,07,24,104,26,17,49,174,25,11,18,068,19,01,11,082,17*74
$GPGSV,4,3,16,04,06,059,,05,05,240,,20,02,281,,09,,,*43
$GPGSV,4,4,16,10,,,,19,,,,32,,,,31,,,*74
$GPGGA,072243.0,3544.021097,N,05123.198079,E,1,06,1.4,1349.6,M,-14.0,M,,*4E
$GPVTG,353.1,T,349.4,M,15.0,N,27.8,K,A*24
$GPRMC,072243.0,A,3544.021097,N,05123.198079,E,15.0,353.1,220615,3.7,E,A*33
$GPGSA,A,3,11,13,15,17,28,30,,,,,,,2.5,1.4,2.1*3A
$GPGSV,4,1,16,13,55,293,32,28,65,002,31,30,53,080,30,17,49,174,27*7B
$GPGSV,4,2,16,15,23,312,26,07,24,104,20,11,18,068,18,01,11,082,16*7D
$GPGSV,4,3,16,04,06,059,,05,05,240,,20,02,281,,09,,,*43
$GPGSV,4,4,16,10,,,,19,,,,32,,,,31,,,*74
$GPGGA,072244.0,3544.024336,N,05123.197043,E,1,06,1.4,1350.5,M,-14.0,M,,*49
$GPVTG,351.1,T,347.4,M,14.6,N,27.1,K,A*26
$GPRMC,072244.0,A,3544.024336,N,05123.197043,E,14.6,351.1,220615,3.7,E,A*3A
$GPGSA,A,3,11,13,15,17,28,30,,,,,,,2.5,1.4,2.1*3A
$GPGSV,4,1,16,13,55,292,33,30,53,081,33,15,23,310,31,17,49,174,26*74
$GPGSV,4,2,16,28,65,004,25,07,24,104,20,11,18,068,18,01,11,082,16*76
$GPGSV,4,3,16,04,06,059,,05,05,240,,20,02,281,,09,,,*43
$GPGSV,4,4,16,10,,,,19,,,,32,,,,31,,,*74
$GPGGA,072245.0,3544.031739,N,05123.196604,E,1,06,1.8,1351.0,M,-14.0,M,,*4B
$GPVTG,351.4,T,347.7,M,14.4,N,26.7,K,A*25
$GPRMC,072245.0,A,3544.031739,N,05123.196604,E,14.4,351.4,220615,3.7,E,A*37
$GPGSA,A,3,11,13,15,17,28,30,,,,,,,3.7,1.8,3.2*37
$GPGSV,4,1,16,13,55,292,33,30,53,081,33,15,23,310,31,17,49,174,26*74
$GPGSV,4,2,16,28,65,004,25,07,24,104,20,11,18,068,18,01,11,082,16*76
$GPGSV,4,3,16,04,06,059,,05,05,240,,20,02,281,,09,,,*43
$GPGSV,4,4,16,10,,,,19,,,,32,,,,31,,,*74
$GPGGA,072245.9,3544.035695,N,05123.195871,E,1,06,1.8,1351.2,M,-14.0,M,,*4C
$GPVTG,351.4,T,347.7,M,14.4,N,26.7,K,A*25
$GPRMC,072245.9,A,3544.035695,N,05123.195871,E,14.4,351.4,220615,3.7,E,A*32
$GPGSA,A,3,11,13,15,17,28,30,,,,,,,3.7,1.8,3.2*37
$GPGSV,4,1,16,30,53,081,32,13,55,292,32,28,65,004,24,17,49,174,23*7F
$GPGSV,4,2,16,15,23,310,23,01,11,082,,04,06,059,,05,05,240,*7D
$GPGSV,4,3,16,07,24,104,,11,18,068,,20,02,281,,09,,,*48
$GPGSV,4,4,16,10,,,,19,,,,32,,,,31,,,*74
$GPGGA,072247.0,3544.039603,N,05123.194745,E,1,06,1.8,1351.3,M,-14.0,M,,*4C
$GPVTG,350.7,T,347.0,M,14.3,N,26.4,K,A*24
$GPRMC,072247.0,A,3544.039603,N,05123.194745,E,14.3,350.7,220615,3.7,E,A*36
$GPGSA,A,3,11,13,15,17,28,30,,,,,,,3.7,1.8,3.2*37
$GPGSV,4,1,16,30,53,081,32,13,55,292,29,28,65,004,27,15,23,310,26*7D
$GPGSV,4,2,16,17,49,174,22,11,18,068,21,01,11,082,,04,06,059,*70
$GPGSV,4,3,16,05,05,240,,07,24,104,,20,02,281,,09,,,*49
$GPGSV,4,4,16,10,,,,19,,,,32,,,,31,,,*74
$GPGGA,072248.0,3544.042895,N,05123.194100,E,1,06,1.4,1351.3,M,-14.0,M,,*45
$GPVTG,351.0,T,347.3,M,13.5,N,24.9,K,A*2F
$GPRMC,072248.0,A,3544.042895,N,05123.194100,E,13.5,351.0,220615,3.7,E,A*34
$GPGSA,A,3,11,13,15,17,28,30,,,,,,,2.5,1.4,2.1*3A
$GPGSV,4,1,16,13,55,292,36,30,53,081,31,17,49,174,30,28,65,004,27*79
$GPGSV,4,2,16,15,23,310,27,07,24,104,23,11,18,068,21,01,11,082,*70
$GPGSV,4,3,16,04,06,059,,05,05,240,,20,02,281,,09,,,*43
$GPGSV,4,4,16,10,,,,19,,,,32,,,,31,,,*74
$GPGGA,072249.0,3544.046092,N,05123.193521,E,1,06,2.0,1352.4,M,-14.0,M,,*4C
$GPVTG,351.3,T,347.6,M,12.6,N,23.3,K,A*26
$GPRMC,072249.0,A,3544.046092,N,05123.193521,E,12.6,351.3,220615,3.7,E,A*3F
$GPGSA,A,3,11,13,15,17,28,30,,,,,,,4.4,2.0,4.0*3D
$GPGSV,4,1,16,13,55,292,36,30,53,081,31,17,49,174,30,28,65,004,27*79
$GPGSV,4,2,16,15,23,310,27,07,24,104,23,11,18,068,21,01,11,082,*70
$GPGSV,4,3,16,04,06,059,,05,05,240,,20,02,281,,09,,,*43
$GPGSV,4,4,16,10,,,,19,,,,32,,,,31,,,*74
$GPGGA,072249.9,3544.049551,N,05123.192872,E,1,06,2.0,1352.7,M,-14.0,M,,*49
$GPVTG,351.3,T,347.6,M,12.6,N,23.3,K,A*26
$GPRMC,072249.9,A,3544.049551,N,05123.192872,E,12.6,351.3,220615,3.7,E,A*39
$GPGSA,A,3,11,13,15,17,28,30,,,,,,,4.4,2.0,4.0*3D
$GPGSV,4,1,16,13,55,292,32,30,53,081,30,17,49,174,27,07,24,104,25*71
$GPGSV,4,2,16,28,65,004,22,15,23,310,21,01,11,082,,04,06,059,*74
$GPGSV,4,3,16,05,05,240,,11,18,068,,20,02,281,,09,,,*4A
$GPGSV,4,4,16,10,,,,19,,,,32,,,,31,,,*74
$GPGGA,072251.0,3544.051833,N,05123.194065,E,1,06,1.8,1353.3,M,-14.0,M,,*4F
$GPVTG,357.0,T,353.4,M,10.3,N,19.2,K,A*2B
$GPRMC,072251.0,A,3544.051833,N,05123.194065,E,10.3,357.0,220615,3.7,E,A*33
$GPGSA,A,3,11,13,15,17,28,30,,,,,,,3.7,1.8,3.2*37
$GPGSV,4,1,16,13,55,292,31,30,53,081,31,28,65,004,27,07,24,104,25*77
$GPGSV,4,2,16,17,49,174,24,15,23,310,22,01,11,082,,04,06,059,*75
$GPGSV,4,3,16,05,05,240,,11,18,068,,20,02,281,,09,,,*4A
$GPGSV,4,4,16,10,,,,19,,,,32,,,,31,,,*74
$GPGGA,072252.0,3544.053647,N,05123.193820,E,1,06,1.8,1354.2,M,-14.0,M,,*4B
$GPVTG,358.5,T,354.8,M,8.5,N,15.8,K,A*13
$GPRMC,072252.0,A,3544.053647,N,05123.193820,E,8.5,358.5,220615,3.7,E,A*04
$GPGSA,A,3,11,13,15,17,28,30,,,,,,,3.7,1.8,3.2*37
$GPGSV,4,1,16,30,53,081,35,17,49,174,29,28,65,004,27,13,55,292,24*76
$GPGSV,4,2,16,15,23,310,22,01,11,082,,04,06,059,,05,05,240,*7C
$GPGSV,4,3,16,07,24,104,,11,18,068,,20,02,281,,09,,,*48
$GPGSV,4,4,16,10,,,,19,,,,32,,,,31,,,*74
$GPGGA,072253.0,3544.053994,N,05123.193604,E,1,06,1.9,1354.6,M,-14.0,M,,*46
$GPVTG,359.0,T,355.3,M,6.6,N,12.3,K,A*1C
$GPRMC,072253.0,A,3544.053994,N,05123.193604,E,6.6,359.0,220615,3.7,E,A*05
$GPGSA,A,3,11,13,15,17,28,30,,,,,,,2.1,1.9,1.0*31
$GPGSV,4,1,16,30,53,081,35,17,49,174,29,28,65,004,27,13,55,292,24*76
$GPGSV,4,2,16,15,23,310,22,01,11,082,,04,06,059,,05,05,240,*7C
$GPGSV,4,3,16,07,24,104,,11,18,068,,20,02,281,,09,,,*48
$GPGSV,4,4,16,10,,,,19,,,,32,,,,31,,,*74
$GPGGA,072253.9,3544.055840,N,05123.193563,E,1,06,1.9,1355.1,M,-14.0,M,,*45
$GPVTG,359.0,T,355.3,M,6.6,N,12.3,K,A*1C
$GPRMC,072253.9,A,3544.055840,N,05123.193563,E,6.6,359.0,220615,3.7,E,A*00
$GPGSA,A,3,11,13,15,17,28,30,,,,,,,2.1,1.9,1.0*31
$GPGSV,4,1,16,30,53,081,34,13,55,292,32,28,65,004,31,15,23,310,25*75
$GPGSV,4,2,16,17,49,174,24,01,11,082,,04,06,059,,05,05,240,*74
$GPGSV,4,3,16,07,24,104,,11,18,068,,20,02,281,,09,,,*48
$GPGSV,4,4,16,10,,,,19,,,,32,,,,31,,,*74
$GPGGA,072255.0,3544.057430,N,05123.192208,E,1,05,1.8,1354.4,M,-14.0,M,,*4E
$GPVTG,354.4,T,350.7,M,6.7,N,12.5,K,A*13
$GPRMC,072255.0,A,3544.057430,N,05123.192208,E,6.7,354.4,220615,3.7,E,A*05
$GPGSA,A,3,13,15,17,28,30,,,,,,,,3.7,1.8,3.2*37
$GPGSV,4,1,16,13,55,292,33,30,53,081,30,15,23,310,25,17,49,174,25*71
$GPGSV,4,2,16,28,65,004,25,01,11,082,,04,06,059,,05,05,240,*71
$GPGSV,4,3,16,07,24,104,,11,18,068,,20,02,281,,09,,,*48
$GPGSV,4,4,16,10,,,,19,,,,32,,,,31,,,*74
$GPGGA,072256.0,3544.059441,N,05123.193194,E,1,05,1.9,1353.9,M,-14.0,M,,*49
$GPVTG,358.3,T,354.6,M,7.1,N,13.2,K,A*1C
$GPRMC,072256.0,A,3544.059441,N,05123.193194,E,7.1,358.3,220615,3.7,E,A*05
$GPGSA,A,3,13,15,17,28,30,,,,,,,,2.1,1.9,1.0*31
$GPGSV,4,1,16,13,55,292,33,30,53,081,31,28,65,004,27,11,18,068,27*74
$GPGSV,4,2,16,17,49,174,26,01,11,082,,04,06,059,,05,05,240,*76
$GPGSV,4,3,16,07,24,104,,15,23,310,,20,02,281,,09,,,*48
$GPGSV,4,4,16,10,,,,19,,,,32,,,,31,,,*74
$GPGGA,072257.0,3544.062980,N,05123.192590,E,1,06,1.8,1353.6,M,-14.0,M,,*4C
$GPVTG,353.2,T,349.5,M,8.5,N,15.7,K,A*11
$GPRMC,072257.0,A,3544.062980,N,05123.192590,E,8.5,353.2,220615,3.7,E,A*0C
$GPGSA,A,3,11,13,15,17,28,30,,,,,,,3.5,1.8,3.1*36
$GPGSV,4,1,16,28,65,004,31,13,55,292,28,17,49,174,28,30,53,081,27*7F
$GPGSV,4,2,16,11,18,068,27,15,23,310,26,07,24,104,25,01,11,082,*71
$GPGSV,4,3,16,04,06,059,,05,05,240,,20,02,281,,09,,,*43
$GPGSV,4,4,16,10,,,,19,,,,32,,,,31,,,*74
$GPGGA,072258.0,3544.064364,N,05123.192949,E,1,06,1.8,1354.4,M,-14.0,M,,*48
$GPVTG,354.2,T,350.5,M,8.7,N,16.1,K,A*19
$GPRMC,072258.0,A,3544.064364,N,05123.192949,E,8.7,354.2,220615,3.7,E,A*08
$GPGSA,A,3,11,13,15,17,28,30,,,,,,,3.7,1.8,3.2*37
$GPGSV,4,1,16,28,65,004,33,13,55,292,31,07,24,104,29,30,53,081,28*76
$GPGSV,4,2,16,15,23,310,27,17,49,174,25,01,11,082,,04,06,059,*71
$GPGSV,4,3,16,05,05,240,,11,18,068,,20,02,281,,09,,,*4A
$GPGSV,4,4,16,10,,,,19,,,,32,,,,31,,,*74
$GPGGA,072259.0,3544.069376,N,05123.194074,E,1,06,1.8,1354.3,M,-14.0,M,,*41
$GPVTG,358.1,T,354.4,M,9.5,N,17.7,K,A*17
$GPRMC,072259.0,A,3544.069376,N,05123.194074,E,9.5,358.1,220615,3.7,E,A*0A
$GPGSA,A,3,11,13,15,17,28,30,,,,,,,3.7,1.8,3.2*37
$GPGSV,4,1,16,28,65,004,33,13,55,292,31,07,24,104,29,30,53,081,28*76
$GPGSV,4,2,16,15,23,310,27,17,49,174,25,01,11,082,,04,06,059,*71
$GPGSV,4,3,16,05,05,240,,11,18,068,,20,02,281,,09,,,*4A
$GPGSV,4,4,16,10,,,,19,,,,32,,,,31,,,*74
$GPGGA,072300.0,3544.072028,N,05123.193966,E,1,06,1.8,1354.4,M,-14.0,M,,*44
$GPVTG,358.1,T,354.4,M,9.5,N,17.7,K,A*17
$GPRMC,072300.0,A,3544.072028,N,05123.193966,E,9.5,358.1,220615,3.7,E,A*08
$GPGSA,A,3,11,13,15,17,28,30,,,,,,,3.7,1.8,3.2*37
$GPGSV,4,1,16,30,53,081,33,13,55,292,32,28,65,004,30,07,24,104,29*7C
$GPGSV,4,2,16,15,23,310,27,17,49,174,23,11,18,068,20,01,11,082,20*7E
$GPGSV,4,3,16,04,06,059,,05,05,240,,20,02,281,,09,,,*43
$GPGSV,4,4,16,10,,,,19,,,,32,,,,31,,,*74
$GPGGA,072301.0,3544.074313,N,05123.191164,E,1,06,1.4,1355.3,M,-14.0,M,,*4A
$GPVTG,354.1,T,350.4,M,10.0,N,18.5,K,A*2F
$GPRMC,072301.0,A,3544.074313,N,05123.191164,E,10.0,354.1,220615,3.7,E,A*3D
$GPGSA,A,3,11,13,15,17,28,30,,,,,,,2.5,1.4,2.1*3A
$GPGSV,4,1,16,30,53,081,34,13,55,292,31,28,65,004,30,15,23,310,28*7A
$GPGSV,4,2,16,17,49,174,26,11,18,068,20,01,11,082,19,07,24,104,17*71
$GPGSV,4,3,16,04,06,059,,05,05,240,,20,02,281,,09,,,*43
$GPGSV,4,4,16,10,,,,19,,,,32,,,,31,,,*74
$GPGGA,072302.0,3544.076540,N,05123.189893,E,1,06,1.4,1356.6,M,-14.0,M,,*45
$GPVTG,354.0,T,350.3,M,9.8,N,18.2,K,A*1E
$GPRMC,072302.0,A,3544.076540,N,05123.189893,E,9.8,354.0,220615,3.7,E,A*05
$GPGSA,A,3,11,13,15,17,28,30,,,,,,,2.5,1.4,2.1*3A
$GPGSV,4,1,16,13,55,292,35,30,53,081,32,28,65,004,26,17,49,174,25*7C
$GPGSV,4,2,16,15,23,310,25,07,24,104,22,11,18,068,20,01,11,082,19*7A
$GPGSV,4,3,16,04,06,059,,05,05,240,,20,02,281,,09,,,*43
$GPGSV,4,4,16,10,,,,19,,,,32,,,,31,,,*74
$GPGGA,072303.0,3544.078038,N,05123.191138,E,1,06,1.4,1356.8,M,-14.0,M,,*4F
$GPVTG,1.2,T,357.5,M,8.5,N,15.7,K,A*1A
$GPRMC,072303.0,A,3544.078038,N,05123.191138,E,8.5,1.2,220615,3.7,E,A*0C
$GPGSA,A,3,11,13,15,17,28,30,,,,,,,2.5,1.4,2.1*3A
$GPGSV,4,1,16,13,55,292,35,30,53,081,32,28,65,004,26,17,49,174,25*7C
$GPGSV,4,2,16,15,23,310,25,07,24,104,22,11,18,068,20,01,11,082,19*7A
$GPGSV,4,3,16,04,06,059,,05,05,240,,20,02,281,,09,,,*43
$GPGSV,4,4,16,10,,,,19,,,,32,,,,31,,,*74
$GPGGA,072303.9,3544.080389,N,05123.191198,E,1,06,1.4,1356.9,M,-14.0,M,,*43
$GPVTG,1.2,T,357.5,M,8.5,N,15.7,K,A*1A
$GPRMC,072303.9,A,3544.080389,N,05123.191198,E,8.5,1.2,220615,3.7,E,A*01
$GPGSA,A,3,11,13,15,17,28,30,,,,,,,2.5,1.4,2.1*3A
$GPGSV,4,1,16,13,55,292,36,07,24,104,28,15,23,310,26,17,49,174,25*76
$GPGSV,4,2,16,30,53,081,24,28,65,004,21,11,18,068,19,01,11,082,19*70
$GPGSV,4,3,16,04,06,059,,05,05,240,,20,02,281,,09,,,*43
$GPGSV,4,4,16,10,,,,19,,,,32,,,,31,,,*74
$GPGGA,072305.0,3544.082335,N,05123.190855,E,1,06,3.0,1357.2,M,-14.0,M,,*4C
$GPVTG,4.0,T,0.3,M,8.2,N,15.2,K,A*18
$GPRMC,072305.0,A,3544.082335,N,05123.190855,E,8.2,4.0,220615,3.7,E,A*02
$GPGSA,A,3,11,13,15,17,28,30,,,,,,,3.1,3.0,0.9*33
$GPGSV,4,1,16,13,55,292,37,15,23,310,32,11,18,068,28,17,49,174,28*7C
$GPGSV,4,2,16,07,24,104,26,28,65,004,24,30,53,081,23,01,11,082,*75
$GPGSV,4,3,16,04,06,059,,05,05,240,,20,02,281,,09,,,*43
$GPGSV,4,4,16,10,,,,19,,,,32,,,,31,,,*74
$GPGGA,072306.0,3544.083978,N,05123.189935,E,1,06,1.4,1357.9,M,-14.0,M,,*4F
$GPVTG,5.6,T,1.9,M,7.4,N,13.7,K,A*1E
$GPRMC,072306.0,A,3544.083978,N,05123.189935,E,7.4,5.6,220615,3.7,E,A*02
$GPGSA,A,3,11,13,15,17,28,30,,,,,,,2.5,1.4,2.1*3A
$GPGSV,4,1,16,13,55,292,38,17,49,174,28,15,23,310,28,11,18,068,27*77
$GPGSV,4,2,16,30,53,081,23,07,24,104,20,01,11,082,17,04,06,059,*70
$GPGSV,4,3,16,05,05,240,,20,02,281,,09,,,,10,,,*7C
$GPGSV,4,4,16,19,,,,32,,,,31,,,,29,,,*7E
$GPGGA,072307.0,3544.087248,N,05123.190206,E,1,06,1.7,1358.5,M,-14.0,M,,*41
$GPVTG,5.2,T,1.5,M,7.9,N,14.7,K,A*1C
$GPRMC,072307.0,A,3544.087248,N,05123.190206,E,7.9,5.2,220615,3.7,E,A*05
$GPGSA,A,3,11,13,15,17,28,30,,,,,,,3.3,1.7,2.9*36
$GPGSV,4,1,16,13,55,292,41,15,23,310,35,17,49,174,31,07,24,104,26*7F
$GPGSV,4,2,16,11,18,068,25,30,53,081,23,01,11,082,17,04,06,059,*76
$GPGSV,4,3,16,05,05,240,,20,02,281,,09,,,,10,,,*7C
$GPGSV,4,4,16,19,,,,32,,,,31,,,,29,,,*7E
$GPGGA,072308.0,3544.091482,N,05123.190219,E,1,06,1.7,1359.7,M,-14.0,M,,*44
$GPVTG,6.8,T,3.1,M,9.1,N,16.8,K,A*18
$GPRMC,072308.0,A,3544.091482,N,05123.190219,E,9.1,6.8,220615,3.7,E,A*0C
$GPGSA,A,3,11,13,15,17,28,30,,,,,,,3.3,1.7,2.9*36
$GPGSV,4,1,16,13,55,292,37,15,23,310,31,07,24,104,30,30,53,081,28*70
$GPGSV,4,2,16,17,49,174,28,28,65,004,25,11,18,068,25,01,11,082,17*7C
$GPGSV,4,3,16,04,06,059,,05,05,240,,20,02,281,,09,,,*43
$GPGSV,4,4,16,10,,,,19,,,,32,,,,31,,,*74
$GPGGA,072308.9,3544.095231,N,05123.190470,E,1,06,1.8,1360.5,M,-14.0,M,,*49
$GPVTG,8.1,T,4.4,M,10.9,N,20.2,K,A*22
$GPRMC,072308.9,A,3544.095231,N,05123.190470,E,10.9,8.1,220615,3.7,E,A*31
$GPGSA,A,3,11,13,15,17,28,30,,,,,,,3.7,1.8,3.2*37
$GPGSV,4,1,16,13,55,292,37,30,53,081,33,15,23,310,32,28,65,004,30*70
$GPGSV,4,2,16,07,24,104,30,17,49,174,24,11,18,068,23,01,11,082,*7D
$GPGSV,4,3,16,04,06,059,,05,05,240,,20,02,281,,09,,,*43
$GPGSV,4,4,16,10,,,,19,,,,32,,,,31,,,*74
$GPGGA,072310.0,3544.098524,N,05123.191689,E,1,06,1.4,1360.1,M,-14.0,M,,*4A
$GPVTG,11.9,T,8.2,M,11.7,N,21.6,K,A*12
$GPRMC,072310.0,A,3544.098524,N,05123.191689,E,11.7,11.9,220615,3.7,E,A*05
$GPGSA,A,3,11,13,15,17,28,30,,,,,,,2.5,1.4,2.1*3A
$GPGSV,4,1,16,30,53,081,33,28,65,004,33,15,23,310,31,13,55,292,30*77
$GPGSV,4,2,16,07,24,104,30,11,18,068,30,17,49,174,29,01,11,082,*72
$GPGSV,4,3,16,04,06,059,,05,05,240,,20,02,281,,09,,,*43
$GPGSV,4,4,16,10,,,,19,,,,32,,,,31,,,*74
$GPGGA,072311.0,3544.101347,N,05123.194095,E,1,06,1.4,1360.3,M,-14.0,M,,*45
$GPVTG,16.7,T,13.0,M,12.0,N,22.1,K,A*23
$GPRMC,072311.0,A,3544.101347,N,05123.194095,E,12.0,16.7,220615,3.7,E,A*05
$GPGSA,A,3,11,13,15,17,28,30,,,,,,,2.5,1.4,2.1*3A
$GPGSV,4,1,16,15,23,310,40,28,65,004,34,13,55,292,32,30,53,081,31*76
$GPGSV,4,2,16,17,49,174,30,07,24,104,30,11,18,068,24,01,11,082,*7F
$GPGSV,4,3,16,04,06,059,,05,05,240,,20,02,281,,09,,,*43
$GPGSV,4,4,16,10,,,,19,,,,32,,,,31,,,*74
$GPGGA,072312.0,3544.104628,N,05123.195487,E,1,06,1.4,1360.7,M,-14.0,M,,*4D
$GPVTG,17.1,T,13.4,M,11.7,N,21.6,K,A*20
$GPRMC,072312.0,A,3544.104628,N,05123.195487,E,11.7,17.1,220615,3.7,E,A*0A
$GPGSA,A,3,11,13,15,17,28,30,,,,,,,2.5,1.4,2.1*3A
$GPGSV,4,1,16,15,23,310,42,17,49,174,34,28,65,004,33,13,55,292,33*72
$GPGSV,4,2,16,30,53,081,28,07,24,104,27,11,18,068,26,01,11,082,*77
$GPGSV,4,3,16,04,06,059,,05,05,240,,20,02,281,,09,,,*43
$GPGSV,4,4,16,10,,,,19,,,,32,,,,31,,,*74
$GPGGA,072313.0,3544.107457,N,05123.196308,E,1,06,1.4,1361.9,M,-14.0,M,,*49
$GPVTG,16.6,T,12.9,M,10.1,N,18.6,K,A*27
$GPRMC,072313.0,A,3544.107457,N,05123.196308,E,10.1,16.6,220615,3.7,E,A*00
$GPGSA,A,3,11,13,15,17,28,30,,,,,,,2.5,1.4,2.1*3A
$GPGSV,4,1,16,15,23,310,37,28,65,004,37,30,53,081,36,07,24,104,34*7B
$GPGSV,4,2,16,13,55,292,24,11,18,068,22,17,49,174,22,01,11,082,*70
$GPGSV,4,3,16,04,06,059,,05,05,240,,20,02,281,,09,,,*43
$GPGSV,4,4,16,10,,,,19,,,,32,,,,31,,,*74
$GPGGA,072314.0,3544.110301,N,05123.197103,E,1,06,1.4,1361.5,M,-14.0,M,,*48
$GPVTG,16.7,T,13.0,M,10.0,N,18.6,K,A*2F
$GPRMC,072314.0,A,3544.110301,N,05123.197103,E,10.0,16.7,220615,3.7,E,A*0D
$GPGSA,A,3,11,13,15,17,28,30,,,,,,,2.5,1.4,2.1*3A
$GPGSV,4,1,16,30,53,081,38,15,23,310,36,28,65,004,35,07,24,104,32*70
$GPGSV,4,2,16,13,55,292,28,17,49,174,25,01,11,082,,04,06,059,*72
$GPGSV,4,3,16,05,05,240,,20,02,281,,09,,,,10,,,*7C
$GPGSV,4,4,16,19,,,,32,,,,31,,,,29,,,*7E
$GPGGA,072315.0,3544.112409,N,05123.198047,E,1,06,1.8,1361.3,M,-14.0,M,,*40
$GPVTG,18.7,T,15.1,M,9.1,N,16.9,K,A*1E
$GPRMC,072315.0,A,3544.112409,N,05123.198047,E,9.1,18.7,220615,3.7,E,A*38
$GPGSA,A,3,11,13,15,17,28,30,,,,,,,3.7,1.8,3.2*37
$GPGSV,4,1,16,28,65,004,36,30,53,081,34,15,23,310,32,07,24,104,30*79
$GPGSV,4,2,16,13,55,292,29,17,49,174,26,01,11,082,,04,06,059,*70
$GPGSV,4,3,16,05,05,240,,20,02,281,,09,,,,10,,,*7C
$GPGSV,4,4,16,19,,,,32,,,,31,,,,29,,,*7E
$GPGGA,072316.0,3544.114239,N,05123.198800,E,1,06,1.8,1361.2,M,-14.0,M,,*4A
$GPVTG,17.5,T,13.8,M,8.8,N,16.3,K,A*1E
$GPRMC,072316.0,A,3544.114239,N,05123.198800,E,8.8,17.5,220615,3.7,E,A*36
$GPGSA,A,3,11,13,15,17,28,30,,,,,,,3.7,1.8,3.2*37
$GPGSV,4,1,16,28,65,004,38,13,55,292,35,30,53,081,33,15,23,310,31*79
$GPGSV,4,2,16,07,24,104,30,17,49,174,20,01,11,082,,04,06,059,*71
$GPGSV,4,3,16,05,05,240,,20,02,281,,09,,,,10,,,*7C
$GPGSV,4,4,16,19,,,,32,,,,31,,,,29,,,*7E
$GPGGA,072317.0,3544.116974,N,05123.200234,E,1,06,1.8,1361.3,M,-14.0,M,,*45
$GPVTG,17.5,T,13.8,M,9.3,N,17.3,K,A*15
$GPRMC,072317.0,A,3544.116974,N,05123.200234,E,9.3,17.5,220615,3.7,E,A*32
$GPGSA,A,3,11,13,15,17,28,30,,,,,,,3.7,1.8,3.2*37
$GPGSV,4,1,16,28,65,004,37,13,55,292,36,30,53,081,34,07,24,104,31*71
$GPGSV,4,2,16,15,23,310,30,17,49,174,20,01,11,082,,04,06,059,*72
$GPGSV,4,3,16,05,05,240,,20,02,281,,09,,,,10,,,*7C
$GPGSV,4,4,16,19,,,,32,,,,31,,,,29,,,*7E
$GPGGA,072318.0,3544.120006,N,05123.201893,E,1,06,1.8,1360.7,M,-14.0,M,,*40
$GPVTG,16.9,T,13.2,M,10.1,N,18.7,K,A*23
$GPRMC,072318.0,A,3544.120006,N,05123.201893,E,10.1,16.9,220615,3.7,E,A*05
$GPGSA,A,3,11,13,15,17,28,30,,,,,,,3.7,1.8,3.2*37
$GPGSV,4,1,16,28,65,004,38,13,55,292,37,30,53,081,33,07,24,104,31*78
$GPGSV,4,2,16,15,23,310,29,17,49,174,18,01,11,082,,04,06,059,*71
$GPGSV,4,3,16,05,05,240,,20,02,281,,09,,,,10,,,*7C
$GPGSV,4,4,16,19,,,,32,,,,31,,,,29,,,*7E
$GPGGA,072319.0,3544.123753,N,05123.202570,E,1,06,1.8,1360.2,M,-14.0,M,,*43
$GPVTG,11.9,T,8.2,M,11.6,N,21.5,K,A*10
$GPRMC,072319.0,A,3544.123753,N,05123.202570,E,11.6,11.9,220615,3.7,E,A*02
$GPGSA,A,3,11,13,15,17,28,30,,,,,,,3.7,1.8,3.2*37
$GPGSV,4,1,16,28,65,004,38,13,55,292,37,07,24,104,31,15,23,310,30*70
$GPGSV,4,2,16,30,53,081,28,17,49,174,26,01,11,082,,04,06,059,*76
$GPGSV,4,3,16,05,05,240,,20,02,281,,09,,,,10,,,*7C
$GPGSV,4,4,16,19,,,,32,,,,31,,,,29,,,*7E
$GPGGA,072320.0,3544.130708,N,05123.202561,E,1,06,1.8,1367.1,M,-14.0,M,,*41
$GPVTG,6.0,T,2.4,M,15.9,N,29.5,K,A*20
$GPRMC,072320.0,A,3544.130708,N,05123.202561,E,15.9,6.0,220615,3.7,E,A*30
$GPGSA,A,3,11,13,15,17,28,30,,,,,,,3.7,1.8,3.2*37
$GPGSV,4,1,16,13,55,292,40,28,65,004,39,30,53,081,30,15,23,310,29*70
$GPGSV,4,2,16,17,49,174,28,07,24,104,18,01,11,082,,04,06,059,*73
$GPGSV,4,3,16,05,05,240,,20,02,281,,09,,,,10,,,*7C
$GPGSV,4,4,16,19,,,,32,,,,31,,,,29,,,*7E
$GPGGA,072321.0,3544.135177,N,05123.203472,E,1,05,1.8,1369.7,M,-14.0,M,,*42
$GPVTG,7.6,T,3.9,M,16.1,N,29.8,K,A*2D
$GPRMC,072321.0,A,3544.135177,N,05123.203472,E,16.1,7.6,220615,3.7,E,A*34
$GPGSA,A,3,13,15,17,28,30,,,,,,,,3.7,1.8,3.2*37
$GPGSV,4,1,16,28,65,004,40,13,55,292,35,30,53,081,33,17,49,174,32*7B
$GPGSV,4,2,16,15,23,310,30,07,24,104,29,01,11,082,,04,06,059,*76
$GPGSV,4,3,16,05,05,240,,20,02,281,,09,,,,10,,,*7C
$GPGSV,4,4,16,19,,,,32,,,,31,,,,29,,,*7E
$GPGGA,072321.9,3544.140975,N,05123.203094,E,1,05,1.8,1372.1,M,-14.0,M,,*43
$GPVTG,3.8,T,0.1,M,17.5,N,32.5,K,A*2E
$GPRMC,072321.9,A,3544.140975,N,05123.203094,E,17.5,3.8,220615,3.7,E,A*36
$GPGSA,A,3,13,15,17,28,30,,,,,,,,3.7,1.8,3.2*37
$GPGSV,4,1,16,28,65,004,39,15,23,310,36,07,24,104,33,17,49,174,32*72
$GPGSV,4,2,16,13,55,292,31,30,53,081,28,01,11,082,24,11,18,068,20*7F
$GPGSV,4,3,16,04,06,059,,05,05,240,,20,02,281,,09,,,*43
$GPGSV,4,4,16,10,,,,19,,,,32,,,,31,,,*74
$GPGGA,072322.9,3544.147072,N,05123.201098,E,1,06,1.4,1371.4,M,-14.0,M,,*4E
$GPVTG,353.3,T,349.6,M,20.1,N,37.2,K,A*28
$GPRMC,072322.9,A,3544.147072,N,05123.201098,E,20.1,353.3,220615,3.7,E,A*3F
$GPGSA,A,3,11,13,15,17,28,30,,,,,,,2.5,1.4,2.1*3A
$GPGSV,4,1,16,28,65,004,39,15,23,310,35,07,24,104,34,30,53,081,34*75
$GPGSV,4,2,16,17,49,174,33,13,55,292,33,11,18,068,25,01,11,082,21*72
$GPGSV,4,3,16,04,06,057,,05,05,239,,20,02,281,,09,,,*43
$GPGSV,4,4,16,10,,,,19,,,,32,,,,31,,,*74
$GPGGA,072324.0,3544.152915,N,05123.199105,E,1,06,1.4,1372.5,M,-14.0,M,,*48
$GPVTG,352.3,T,348.6,M,21.4,N,39.6,K,A*26
$GPRMC,072324.0,A,3544.152915,N,05123.199105,E,21.4,352.3,220615,3.7,E,A*3E
$GPGSA,A,3,11,13,15,17,28,30,,,,,,,2.5,1.4,2.1*3A
$GPGSV,4,1,16,28,65,004,39,15,23,310,35,17,49,174,33,30,53,081,32*79
$GPGSV,4,2,16,07,24,104,32,13,55,292,31,11,18,068,22,01,11,082,22*78
$GPGSV,4,3,16,04,06,057,,05,05,239,,20,02,281,,09,,,*43
$GPGSV,4,4,16,10,,,,19,,,,32,,,,31,,,*74
$GPGGA,072325.0,3544.159351,N,05123.197667,E,1,06,1.4,1373.4,M,-14.0,M,,*45
$GPVTG,352.3,T,348.6,M,22.5,N,41.6,K,A*2B
$GPRMC,072325.0,A,3544.159351,N,05123.197667,E,22.5,352.3,220615,3.7,E,A*31
$GPGSA,A,3,11,13,15,17,28,30,,,,,,,2.5,1.4,2.1*3A
$GPGSV,4,1,16,28,65,004,38,15,23,310,34,17,49,174,33,30,53,081,33*78
$GPGSV,4,2,16,13,55,292,32,07,24,104,31,11,18,068,23,01,11,082,20*7B
$GPGSV,4,3,16,05,05,239,16,04,06,057,,20,02,281,,09,,,*44
$GPGSV,4,4,16,10,,,,19,,,,32,,,,31,,,*74
$GPGGA,072326.0,3544.166067,N,05123.196034,E,1,06,1.4,1373.7,M,-14.0,M,,*4E
$GPVTG,352.7,T,349.0,M,23.9,N,44.2,K,A*24
$GPRMC,072326.0,A,3544.166067,N,05123.196034,E,23.9,352.7,220615,3.7,E,A*30
$GPGSA,A,3,11,13,15,17,28,30,,,,,,,2.5,1.4,2.1*3A
$GPGSV,4,1,16,28,65,004,38,15,23,310,34,30,53,081,33,17,49,174,33*78
$GPGSV,4,2,16,13,55,292,32,07,24,104,29,11,18,068,23,01,11,082,22*70
$GPGSV,4,3,16,05,05,239,17,04,06,057,,20,02,281,,09,,,*45
$GPGSV,4,4,16,10,,,,19,,,,32,,,,31,,,*74
$GPGGA,072327.0,3544.172911,N,05123.195079,E,1,06,1.4,1373.3,M,-14.0,M,,*4C
$GPVTG,352.5,T,348.8,M,25.1,N,46.4,K,A*25
$GPRMC,072327.0,A,3544.172911,N,05123.195079,E,25.1,352.5,220615,3.7,E,A*3A
$GPGSA,A,3,11,13,15,17,28,30,,,,,,,2.5,1.4,2.1*3A
$GPGSV,4,1,16,28,65,004,38,15,23,310,35,30,53,081,32,17,49,174,32*79
$GPGSV,4,2,16,13,55,292,31,07,24,104,31,01,11,082,22,11,18,068,20*79
$GPGSV,4,3,16,05,05,239,18,04,06,057,,20,02,281,,09,,,*4A
$GPGSV,4,4,16,10,,,,19,,,,32,,,,31,,,*74
$GPGGA,072328.0,3544.179620,N,05123.193908,E,1,06,1.4,1373.7,M,-14.0,M,,*48
$GPVTG,352.5,T,348.8,M,24.8,N,46.0,K,A*29
$GPRMC,072328.0,A,3544.179620,N,05123.193908,E,24.8,352.5,220615,3.7,E,A*32
$GPGSA,A,3,11,13,15,17,28,30,,,,,,,2.5,1.4,2.1*3A
$GPGSV,4,1,16,28,65,004,38,15,23,310,34,30,53,081,33,07,24,104,32*74
$GPGSV,4,2,16,17,49,174,32,13,55,292,30,01,11,082,25,11,18,068,24*75
$GPGSV,4,3,16,05,05,239,20,04,06,057,,09,,,,10,,,*7B
$GPGSV,4,4,16,19,,,,32,,,,31,,,,29,,,*7E
$GPGGA,072329.0,3544.186461,N,05123.192892,E,1,06,1.4,1373.2,M,-14.0,M,,*48
$GPVTG,352.3,T,348.6,M,24.9,N,46.2,K,A*22
$GPRMC,072329.0,A,3544.186461,N,05123.192892,E,24.9,352.3,220615,3.7,E,A*30
$GPGSA,A,3,11,13,15,17,28,30,,,,,,,2.5,1.4,2.1*3A
$GPGSV,4,1,16,28,65,004,39,15,23,310,35,07,24,104,35,30,53,081,33*73
$GPGSV,4,2,16,17,49,174,32,13,55,292,32,11,18,068,27,05,05,239,26*74
$GPGSV,4,3,16,01,11,082,25,04,06,057,,09,,,,10,,,*7D
$GPGSV,4,4,16,19,,,,32,,,,31,,,,29,,,*7E
$GPGGA,072330.0,3544.193487,N,05123.191680,E,1,06,1.4,1373.1,M,-14.0,M,,*41
$GPVTG,351.4,T,347.7,M,25.3,N,46.8,K,A*29
$GPRMC,072330.0,A,3544.193487,N,05123.191680,E,25.3,351.4,220615,3.7,E,A*35
$GPGSA,A,3,11,13,15,17,28,30,,,,,,,2.5,1.4,2.1*3A
$GPGSV,4,1,16,28,65,004,39,15,23,310,35,07,24,104,34,13,55,292,33*75
$GPGSV,4,2,16,17,49,174,32,30,53,081,31,01,11,082,25,11,18,068,25*72
$GPGSV,4,3,16,05,05,239,20,04,06,057,,09,,,,10,,,*7B
$GPGSV,4,4,16,19,,,,32,,,,31,,,,29,,,*7E
$GPGGA,072331.0,3544.200631,N,05123.190329,E,1,06,1.4,1373.5,M,-14.0,M,,*45
$GPVTG,351.4,T,347.7,M,25.5,N,47.3,K,A*25
$GPRMC,072331.0,A,3544.200631,N,05123.190329,E,25.5,351.4,220615,3.7,E,A*33
$GPGSA,A,3,11,13,15,17,28,30,,,,,,,2.5,1.4,2.1*3A
$GPGSV,4,1,16,28,65,004,39,15,23,310,35,30,53,081,31,13,55,292,30*7B
$GPGSV,4,2,16,17,49,174,30,07,24,104,29,11,18,068,22,01,11,082,21*72
$GPGSV,4,3,16,05,05,239,20,04,06,057,,09,,,,10,,,*7B
$GPGSV,4,4,16,19,,,,32,,,,31,,,,29,,,*7E
$GPGGA,072332.0,3544.207566,N,05123.189238,E,1,06,1.4,1373.9,M,-14.0,M,,*45
$GPVTG,353.3,T,349.6,M,25.7,N,47.6,K,A*28
$GPRMC,072332.0,A,3544.207566,N,05123.189238,E,25.7,353.3,220615,3.7,E,A*38
$GPGSA,A,3,11,13,15,17,28,30,,,,,,,2.5,1.4,2.1*3A
$GPGSV,4,1,16,28,65,004,38,17,49,174,33,30,53,081,33,13,55,292,31*71
$GPGSV,4,2,16,15,23,310,27,07,24,104,26,11,18,068,23,05,05,239,20*76
$GPGSV,4,3,16,01,11,082,19,04,06,057,,09,,,,10,,,*72
$GPGSV,4,4,16,19,,,,32,,,,31,,,,29,,,*7E
$GPGGA,072333.0,3544.214753,N,05123.188449,E,1,06,1.4,1374.3,M,-14.0,M,,*4E
$GPVTG,354.3,T,350.6,M,26.3,N,48.8,K,A*21
$GPRMC,072333.0,A,3544.214753,N,05123.188449,E,26.3,354.3,220615,3.7,E,A*3E
$GPGSA,A,3,11,13,15,17,28,30,,,,,,,2.5,1.4,2.1*3A
$GPGSV,4,1,16,28,65,004,38,13,55,292,34,07,24,104,34,30,53,081,33*7E
$GPGSV,4,2,16,17,49,174,33,15,23,310,29,11,18,068,24,05,05,239,20*76
$GPGSV,4,3,16,01,11,082,19,04,06,057,,20,02,281,,09,,,*48
$GPGSV,4,4,16,10,,,,19,,,,32,,,,31,,,*74
$GPGGA,072333.9,3544.221856,N,05123.187281,E,1,06,1.4,1375.3,M,-14.0,M,,*47
$GPVTG,353.3,T,349.7,M,26.8,N,49.6,K,A*2B
$GPRMC,072333.9,A,3544.221856,N,05123.187281,E,26.8,353.3,220615,3.7,E,A*3A
$GPGSA,A,3,11,13,15,17,28,30,,,,,,,2.5,1.4,2.1*3A
$GPGSV,4,1,16,28,65,004,39,30,53,081,33,17,49,174,32,13,55,292,30*70
$GPGSV,4,2,16,07,24,104,25,01,11,082,23,11,18,068,22,15,23,310,22*71
$GPGSV,4,3,16,05,05,239,20,04,06,057,,20,02,281,,09,,,*41
$GPGSV,4,4,16,10,,,,19,,,,32,,,,31,,,*74
$GPGGA,072335.0,3544.229665,N,05123.186574,E,1,06,1.4,1374.9,M,-14.0,M,,*49
$GPVTG,352.8,T,349.1,M,27.1,N,50.2,K,A*23
$GPRMC,072335.0,A,3544.229665,N,05123.186574,E,27.1,352.8,220615,3.7,E,A*3D
$GPGSA,A,3,11,13,15,17,28,30,,,,,,,2.5,1.4,2.1*3A
$GPGSV,4,1,16,28,65,004,38,30,53,081,32,17,49,174,32,13,55,292,29*78
$GPGSV,4,2,16,07,24,104,24,11,18,068,22,01,11,082,22,15,23,310,22*71
$GPGSV,4,3,16,05,05,239,20,04,06,057,,20,02,281,,09,,,*41
$GPGSV,4,4,16,10,,,,19,,,,32,,,,31,,,*74
$GPGGA,072336.0,3544.237119,N,05123.185444,E,1,06,1.4,1375.1,M,-14.0,M,,*41
$GPVTG,353.0,T,349.3,M,27.2,N,50.3,K,A*2A
$GPRMC,072336.0,A,3544.237119,N,05123.185444,E,27.2,353.0,220615,3.7,E,A*36
$GPGSA,A,3,11,13,15,17,28,30,,,,,,,2.5,1.4,2.1*3A
$GPGSV,4,1,16,28,65,004,38,13,55,292,36,30,53,081,32,17,49,174,32*76
$GPGSV,4,2,16,15,23,310,31,05,05,239,28,07,24,104,26,11,18,068,22*78
$GPGSV,4,3,16,01,11,082,22,04,06,057,,20,02,281,,09,,,*40
$GPGSV,4,4,16,10,,,,19,,,,32,,,,31,,,*74
$GPGGA,072337.0,3544.245899,N,05123.184722,E,1,06,1.8,1375.3,M,-14.0,M,,*48
$GPVTG,354.5,T,350.8,M,28.9,N,53.6,K,A*29
$GPRMC,072337.0,A,3544.245899,N,05123.184722,E,28.9,354.5,220615,3.7,E,A*37
$GPGSA,A,3,11,13,15,17,28,30,,,,,,,3.7,1.8,3.2*37
$GPGSV,4,1,16,28,65,004,38,13,55,292,37,15,23,310,35,17,49,174,33*7A
$GPGSV,4,2,16,30,53,081,33,07,24,104,25,05,05,239,25,01,11,082,*73
$GPGSV,4,3,16,04,06,057,,11,18,068,,20,02,281,,09,,,*4C
$GPGSV,4,4,16,10,,,,19,,,,32,,,,31,,,*74
$GPGGA,072338.0,3544.253822,N,05123.184077,E,1,06,1.8,1375.9,M,-14.0,M,,*4D
$GPVTG,354.7,T,351.0,M,28.8,N,53.3,K,A*26
$GPRMC,072338.0,A,3544.253822,N,05123.184077,E,28.8,354.7,220615,3.7,E,A*3B
$GPGSA,A,3,11,13,15,17,28,30,,,,,,,3.7,1.8,3.2*37
$GPGSV,4,1,16,28,65,004,39,15,23,310,36,13,55,292,35,30,53,081,33*7F
$GPGSV,4,2,16,17,49,174,30,07,24,104,25,11,18,068,24,05,05,239,23*79
$GPGSV,4,3,16,01,11,082,,04,06,057,,20,02,281,,09,,,*40
$GPGSV,4,4,16,10,,,,19,,,,32,,,,31,,,*74
$GPGGA,072339.0,3544.261510,N,05123.183139,E,1,06,1.4,1376.5,M,-14.0,M,,*4E
$GPVTG,354.7,T,351.0,M,27.0,N,50.0,K,A*21
